<?xml version="1.0" encoding="UTF-8"?><RecordSet><Record><StopID>769</StopID><StopName>FT LAUDERDALE TRI-RAIL STATION</StopName><Sequence>1</Sequence><Latitude>26.1225</Latitude><Longitude>-80.171944</Longitude></Record><Record><StopID>10377</StopID><StopName>SHERIDAN STREET TRI-RAIL STATION</StopName><Sequence>2</Sequence><Latitude>26.031717</Latitude><Longitude>-80.167774</Longitude></Record><Record><StopID>10287</StopID><StopName>NW 8 ST &amp; NW 1 AV</StopName><Sequence>3</Sequence><Latitude>25.781712</Latitude><Longitude>-80.196426</Longitude></Record><Record><StopID>10401</StopID><StopName>NW 1 AV &amp; NW 5 ST (S/F)</StopName><Sequence>4</Sequence><Latitude>25.778538</Latitude><Longitude>-80.195394</Longitude></Record><Record><StopID>6643</StopID><StopName>NW 1 AV &amp; NW 1 ST</StopName><Sequence>5</Sequence><Latitude>25.774729</Latitude><Longitude>-80.195642</Longitude></Record><Record><StopID>1340</StopID><StopName>SW 1 ST &amp; SW 1 AV</StopName><Sequence>6</Sequence><Latitude>25.773455</Latitude><Longitude>-80.195646</Longitude></Record><Record><StopID>590</StopID><StopName>SE 1ST &amp; SE 1 AV</StopName><Sequence>7</Sequence><Latitude>25.773315</Latitude><Longitude>-80.191272</Longitude></Record></RecordSet>