<?xml version="1.0" encoding="UTF-8"?><RecordSet><Record><NearbyID>9844</NearbyID><NearbyName>US 1 &amp; MM 50 MARATHON</NearbyName><NearbyType>Bus</NearbyType><Address></Address><Address2></Address2><Descr>301 Dade-Monroe Express (NB)</Descr><Distance>240 ft</Distance><Latitude>24.71614</Latitude><Longitude>-81.075723</Longitude></Record><Record><NearbyID>9845</NearbyID><NearbyName>US 1 &amp; MM 74 ISLA MORADA</NearbyName><NearbyType>Bus</NearbyType><Address></Address><Address2></Address2><Descr>301 Dade-Monroe Express (NB)</Descr><Distance>26.2 mi</Distance><Latitude>24.85859</Latitude><Longitude>-80.724638</Longitude></Record><Record><NearbyID>10369</NearbyID><NearbyName>US 1 &amp; MM 87 TAVERNIER</NearbyName><NearbyType>Bus</NearbyType><Address></Address><Address2></Address2><Descr>301 Dade-Monroe Express (NB)</Descr><Distance>38.9 mi</Distance><Latitude>24.959922</Latitude><Longitude>-80.568438</Longitude></Record><Record><NearbyID>9847</NearbyID><NearbyName>US 1 &amp; MM 98 KEY LARGO</NearbyName><NearbyType>Bus</NearbyType><Address></Address><Address2></Address2><Descr>301 Dade-Monroe Express (NB)</Descr><Distance>49.7 mi</Distance><Latitude>25.080763</Latitude><Longitude>-80.45493</Longitude></Record><Record><NearbyID>9672</NearbyID><NearbyName>SW 380 TE &amp; SW 193 PL (E/F)</NearbyName><NearbyType>Bus</NearbyType><Address></Address><Address2></Address2><Descr>344 (SB)</Descr><Distance>62.2 mi</Distance><Latitude>25.414081</Latitude><Longitude>-80.504367</Longitude></Record><Record><NearbyID>9670</NearbyID><NearbyName>SW 195 AVENUE RD &amp; SW 379 ST (S/F)</NearbyName><NearbyType>Bus</NearbyType><Address></Address><Address2></Address2><Descr>344 (SB)</Descr><Distance>62.2 mi</Distance><Latitude>25.415853</Latitude><Longitude>-80.50644</Longitude></Record><Record><NearbyID>9669</NearbyID><NearbyName>SW 195 AVENUE RD &amp; SW 194 AV (S/F)</NearbyName><NearbyType>Bus</NearbyType><Address></Address><Address2></Address2><Descr>344 (SB)</Descr><Distance>62.4 mi</Distance><Latitude>25.41693</Latitude><Longitude>-80.505307</Longitude></Record><Record><NearbyID>9563</NearbyID><NearbyName>SW 193 AV &amp; SW 378 ST (N/N)</NearbyName><NearbyType>Bus</NearbyType><Address></Address><Address2></Address2><Descr>344 (NB), 344 (SB)</Descr><Distance>62.4 mi</Distance><Latitude>25.416574</Latitude><Longitude>-80.503313</Longitude></Record><Record><NearbyID>10159</NearbyID><NearbyName>SW 192 AV &amp; # 36590</NearbyName><NearbyType>Bus</NearbyType><Address></Address><Address2></Address2><Descr>344 (SB)</Descr><Distance>63.3 mi</Distance><Latitude>25.431952</Latitude><Longitude>-80.501524</Longitude></Record><Record><NearbyID>9667</NearbyID><NearbyName>SW 187 AV &amp; SW 358 ST (S/F)</NearbyName><NearbyType>Bus</NearbyType><Address></Address><Address2></Address2><Descr>344 (SB)</Descr><Distance>63.8 mi</Distance><Latitude>25.435001</Latitude><Longitude>-80.493352</Longitude></Record><Record><NearbyID>9668</NearbyID><NearbyName>SW 187 AV &amp; SW 358 ST (N/N)</NearbyName><NearbyType>Bus</NearbyType><Address></Address><Address2></Address2><Descr>344 (NB)</Descr><Distance>63.8 mi</Distance><Latitude>25.434996</Latitude><Longitude>-80.493221</Longitude></Record><Record><NearbyID>9666</NearbyID><NearbyName>SW 187 AV &amp; SW 354 TE (S/F)</NearbyName><NearbyType>Bus</NearbyType><Address></Address><Address2></Address2><Descr>344 (SB)</Descr><Distance>64 mi</Distance><Latitude>25.438109</Latitude><Longitude>-80.493372</Longitude></Record><Record><NearbyID>9665</NearbyID><NearbyName>SW 187 AV &amp; SW 354 TE (N/N)</NearbyName><NearbyType>Bus</NearbyType><Address></Address><Address2></Address2><Descr>344 (NB)</Descr><Distance>64 mi</Distance><Latitude>25.438201</Latitude><Longitude>-80.493275</Longitude></Record><Record><NearbyID>10308</NearbyID><NearbyName>SW 187 AV &amp; SW 352 ST</NearbyName><NearbyType>Bus</NearbyType><Address></Address><Address2></Address2><Descr>344 (NB)</Descr><Distance>64.2 mi</Distance><Latitude>25.440796</Latitude><Longitude>-80.493243</Longitude></Record><Record><NearbyID>9664</NearbyID><NearbyName>SW 187 AV &amp; SW 348 ST (N/F)</NearbyName><NearbyType>Bus</NearbyType><Address></Address><Address2></Address2><Descr>344 (NB), 344 (SB)</Descr><Distance>64.3 mi</Distance><Latitude>25.443555</Latitude><Longitude>-80.493316</Longitude></Record><Record><NearbyID>9663</NearbyID><NearbyName>SW 7 ST &amp; SW 8 AV (W/N)</NearbyName><NearbyType>Bus</NearbyType><Address></Address><Address2></Address2><Descr>344 (SB)</Descr><Distance>64.3 mi</Distance><Latitude>25.440534</Latitude><Longitude>-80.489075</Longitude></Record><Record><NearbyID>9662</NearbyID><NearbyName>SW 6 AV &amp; SW 7 ST (S/N)</NearbyName><NearbyType>Bus</NearbyType><Address></Address><Address2></Address2><Descr>344 (SB)</Descr><Distance>64.5 mi</Distance><Latitude>25.440697</Latitude><Longitude>-80.485351</Longitude></Record><Record><NearbyID>1901</NearbyID><NearbyName>W PALM DR &amp; SW 187 AV</NearbyName><NearbyType>Bus</NearbyType><Address></Address><Address2></Address2><Descr>70 (NB)</Descr><Distance>64.5 mi</Distance><Latitude>25.447836</Latitude><Longitude>-80.493132</Longitude></Record><Record><NearbyID>1903</NearbyID><NearbyName>W PALM DR &amp; SW 9 AV</NearbyName><NearbyType>Bus</NearbyType><Address></Address><Address2></Address2><Descr>70 (SB), 344 (NB)</Descr><Distance>64.6 mi</Distance><Latitude>25.44775</Latitude><Longitude>-80.491115</Longitude></Record><Record><NearbyID>1900</NearbyID><NearbyName>W PALM DR &amp; NW 9 AV</NearbyName><NearbyType>Bus</NearbyType><Address></Address><Address2></Address2><Descr>70 (NB)</Descr><Distance>64.6 mi</Distance><Latitude>25.447842</Latitude><Longitude>-80.491122</Longitude></Record><Record><NearbyID>9661</NearbyID><NearbyName>SW 6 AV &amp; SW 4 ST (S/N)</NearbyName><NearbyType>Bus</NearbyType><Address></Address><Address2></Address2><Descr>344 (SB)</Descr><Distance>64.7 mi</Distance><Latitude>25.443737</Latitude><Longitude>-80.485377</Longitude></Record><Record><NearbyID>1890</NearbyID><NearbyName>SW 187 AV &amp; # 34000</NearbyName><NearbyType>Bus</NearbyType><Address></Address><Address2></Address2><Descr>70 (SB)</Descr><Distance>64.7 mi</Distance><Latitude>25.450604</Latitude><Longitude>-80.493465</Longitude></Record><Record><NearbyID>1891</NearbyID><NearbyName>NW 10 AV (SW 187 AV) &amp; NW 3 ST</NearbyName><NearbyType>Bus</NearbyType><Address></Address><Address2></Address2><Descr>70 (NB)</Descr><Distance>64.7 mi</Distance><Latitude>25.450648</Latitude><Longitude>-80.493345</Longitude></Record><Record><NearbyID>1899</NearbyID><NearbyName>W PALM DR &amp; OP # 777</NearbyName><NearbyType>Bus</NearbyType><Address></Address><Address2></Address2><Descr>70 (NB)</Descr><Distance>64.7 mi</Distance><Latitude>25.44785</Latitude><Longitude>-80.488901</Longitude></Record><Record><NearbyID>1904</NearbyID><NearbyName>W PALM DR &amp; SW 8 AV</NearbyName><NearbyType>Bus</NearbyType><Address></Address><Address2></Address2><Descr>70 (SB), 344 (NB)</Descr><Distance>64.7 mi</Distance><Latitude>25.447763</Latitude><Longitude>-80.488763</Longitude></Record><Record><NearbyID>9660</NearbyID><NearbyName>SW 6 AV &amp; SW 1 ST (S/F)</NearbyName><NearbyType>Bus</NearbyType><Address></Address><Address2></Address2><Descr>344 (SB)</Descr><Distance>64.8 mi</Distance><Latitude>25.446543</Latitude><Longitude>-80.485408</Longitude></Record><Record><NearbyID>1898</NearbyID><NearbyName>W PALM DR &amp; NW 6 AV</NearbyName><NearbyType>Bus</NearbyType><Address></Address><Address2></Address2><Descr>70 (NB)</Descr><Distance>64.8 mi</Distance><Latitude>25.447858</Latitude><Longitude>-80.486435</Longitude></Record><Record><NearbyID>1905</NearbyID><NearbyName>W PALM DR &amp; SW 6 AV</NearbyName><NearbyType>Bus</NearbyType><Address></Address><Address2></Address2><Descr>35 (SB), 70 (SB), 344 (NB)</Descr><Distance>64.9 mi</Distance><Latitude>25.447656</Latitude><Longitude>-80.484443</Longitude></Record><Record><NearbyID>9459</NearbyID><NearbyName>W PALM DR &amp; SW 5 AV (E/N)</NearbyName><NearbyType>Bus</NearbyType><Address></Address><Address2></Address2><Descr>35 (SB), 70 (SB), 302 Card Sound Express (SB), 344 (NB)</Descr><Distance>64.9 mi</Distance><Latitude>25.447663</Latitude><Longitude>-80.483493</Longitude></Record><Record><NearbyID>1889</NearbyID><NearbyName>SW 187 AV &amp; # 33600</NearbyName><NearbyType>Bus</NearbyType><Address></Address><Address2></Address2><Descr>70 (SB)</Descr><Distance>65 mi</Distance><Latitude>25.456017</Latitude><Longitude>-80.493506</Longitude></Record><Record><NearbyID>1892</NearbyID><NearbyName>NW 10 AV (SW 187 AV) &amp; NW 8 ST</NearbyName><NearbyType>Bus</NearbyType><Address></Address><Address2></Address2><Descr>70 (NB)</Descr><Distance>65 mi</Distance><Latitude>25.456174</Latitude><Longitude>-80.493424</Longitude></Record><Record><NearbyID>1881</NearbyID><NearbyName>NW 6 AV &amp; NW 2 ST</NearbyName><NearbyType>Bus</NearbyType><Address></Address><Address2></Address2><Descr>35 (SB)</Descr><Distance>65 mi</Distance><Latitude>25.449938</Latitude><Longitude>-80.485364</Longitude></Record><Record><NearbyID>1914</NearbyID><NearbyName>US 1 &amp; 34800 BLOCK</NearbyName><NearbyType>Bus</NearbyType><Address></Address><Address2></Address2><Descr>301 Dade-Monroe Express (SB), 302 Card Sound Express (SB)</Descr><Distance>65 mi</Distance><Latitude>25.442033</Latitude><Longitude>-80.475195</Longitude></Record><Record><NearbyID>271</NearbyID><NearbyName>W PALM DR &amp; SW 4 AV</NearbyName><NearbyType>Bus</NearbyType><Address></Address><Address2></Address2><Descr>35 (SB), 70 (SB), 344 (NB)</Descr><Distance>65 mi</Distance><Latitude>25.447684</Latitude><Longitude>-80.481739</Longitude></Record><Record><NearbyID>275</NearbyID><NearbyName>W PALM DR &amp; NW 4 AV</NearbyName><NearbyType>Bus</NearbyType><Address></Address><Address2></Address2><Descr>34 Busway Flyer (NB), 34 Busway Flyer (SB), 35 (NB), 70 (NB), 302 Card Sound Express (NB), 302 Card Sound Express (SB), 344 (SB)</Descr><Distance>65 mi</Distance><Latitude>25.447925</Latitude><Longitude>-80.481729</Longitude></Record><Record><NearbyID>1915</NearbyID><NearbyName>US 1 &amp; 34900 BLOCK</NearbyName><NearbyType>Bus</NearbyType><Address></Address><Address2></Address2><Descr>301 Dade-Monroe Express (NB), 302 Card Sound Express (NB)</Descr><Distance>65 mi</Distance><Latitude>25.442353</Latitude><Longitude>-80.474882</Longitude></Record><Record><NearbyID>1880</NearbyID><NearbyName>NW 6 AV &amp; NW 4 ST</NearbyName><NearbyType>Bus</NearbyType><Address></Address><Address2></Address2><Descr>35 (SB)</Descr><Distance>65.1 mi</Distance><Latitude>25.452261</Latitude><Longitude>-80.485377</Longitude></Record><Record><NearbyID>1888</NearbyID><NearbyName>SW 187 AV &amp; # 33300</NearbyName><NearbyType>Bus</NearbyType><Address></Address><Address2></Address2><Descr>70 (SB)</Descr><Distance>65.1 mi</Distance><Latitude>25.458905</Latitude><Longitude>-80.493526</Longitude></Record><Record><NearbyID>1893</NearbyID><NearbyName>NW 10 AV (SW 187 AV) &amp; NW 12 ST</NearbyName><NearbyType>Bus</NearbyType><Address></Address><Address2></Address2><Descr>70 (NB)</Descr><Distance>65.1 mi</Distance><Latitude>25.459087</Latitude><Longitude>-80.493435</Longitude></Record><Record><NearbyID>9656</NearbyID><NearbyName>SW 344 ST &amp; SW 2 AV (E/F)</NearbyName><NearbyType>Bus</NearbyType><Address></Address><Address2></Address2><Descr>344 (NB)</Descr><Distance>65.1 mi</Distance><Latitude>25.447694</Latitude><Longitude>-80.479102</Longitude></Record><Record><NearbyID>10323</NearbyID><NearbyName>BUSWAY &amp; W PALM DR</NearbyName><NearbyType>Bus</NearbyType><Address></Address><Address2></Address2><Descr>38 Busway MAX (SB)</Descr><Distance>65.1 mi</Distance><Latitude>25.447989</Latitude><Longitude>-80.47937</Longitude></Record><Record><NearbyID>10353</NearbyID><NearbyName>BUSWAY &amp; SW 344 ST</NearbyName><NearbyType>Bus</NearbyType><Address></Address><Address2></Address2><Descr>34 Busway Flyer (SB)</Descr><Distance>65.2 mi</Distance><Latitude>25.448101</Latitude><Longitude>-80.479398</Longitude></Record><Record><NearbyID>10322</NearbyID><NearbyName>BUSWAY &amp; W PALM DR</NearbyName><NearbyType>Bus</NearbyType><Address></Address><Address2></Address2><Descr>38 Busway MAX (NB)</Descr><Distance>65.2 mi</Distance><Latitude>25.448023</Latitude><Longitude>-80.479193</Longitude></Record><Record><NearbyID>10352</NearbyID><NearbyName>BUSWAY &amp; SW 344 ST</NearbyName><NearbyType>Bus</NearbyType><Address></Address><Address2></Address2><Descr>34 Busway Flyer (NB)</Descr><Distance>65.2 mi</Distance><Latitude>25.4481</Latitude><Longitude>-80.479182</Longitude></Record><Record><NearbyID>1896</NearbyID><NearbyName>W PALM DR &amp; NW 1 AV</NearbyName><NearbyType>Bus</NearbyType><Address></Address><Address2></Address2><Descr>35 (NB), 35 (SB), 38 Busway MAX (NB), 70 (NB), 70 (SB), 302 Card Sound Express (NB)</Descr><Distance>65.2 mi</Distance><Latitude>25.447968</Latitude><Longitude>-80.478251</Longitude></Record><Record><NearbyID>1906</NearbyID><NearbyName>E PALM DR &amp; KROME AV</NearbyName><NearbyType>Bus</NearbyType><Address></Address><Address2></Address2><Descr>35 (SB), 38 Busway MAX (SB), 70 (SB), 302 Card Sound Express (SB), 344 (NB)</Descr><Distance>65.2 mi</Distance><Latitude>25.447707</Latitude><Longitude>-80.4769</Longitude></Record></RecordSet>