<?xml version="1.0" encoding="UTF-8"?><RecordSet><Record><NearbyID>8656</NearbyID><NearbyName>NE 163 ST &amp; NE 35 AV</NearbyName><NearbyType>Bus</NearbyType><Address></Address><Address2></Address2><Descr>105 Route E (WB), 108 Route H (NB)</Descr><Distance>233 ft</Distance><Latitude>25.928694</Latitude><Longitude>-80.135428</Longitude></Record><Record><NearbyID>8657</NearbyID><NearbyName>NE 163 ST &amp; INTERAMA BD</NearbyName><NearbyType>Bus</NearbyType><Address></Address><Address2></Address2><Descr>105 Route E (EB), 105 Route E (WB), 108 Route H (NB), 108 Route H (SB)</Descr><Distance>429 ft</Distance><Latitude>25.927883</Latitude><Longitude>-80.137018</Longitude></Record><Record><NearbyID>8952</NearbyID><NearbyName>NE 163 ST &amp; NE 35 AV</NearbyName><NearbyType>Bus</NearbyType><Address></Address><Address2></Address2><Descr>108 Route H (SB)</Descr><Distance>0.1 mi</Distance><Latitude>25.928709</Latitude><Longitude>-80.134481</Longitude></Record><Record><NearbyID>8544</NearbyID><NearbyName>NE 35 AV &amp; NE 164 ST</NearbyName><NearbyType>Bus</NearbyType><Address></Address><Address2></Address2><Descr>105 Route E (EB), 105 Route E (WB)</Descr><Distance>0.11 mi</Distance><Latitude>25.929767</Latitude><Longitude>-80.135505</Longitude></Record><Record><NearbyID>8655</NearbyID><NearbyName>NE 163 ST &amp; NE 35 AV</NearbyName><NearbyType>Bus</NearbyType><Address></Address><Address2></Address2><Descr>105 Route E (WB), 108 Route H (NB)</Descr><Distance>0.12 mi</Distance><Latitude>25.929172</Latitude><Longitude>-80.134349</Longitude></Record><Record><NearbyID>8537</NearbyID><NearbyName>NE 35 AV &amp; NE 164 ST</NearbyName><NearbyType>Bus</NearbyType><Address></Address><Address2></Address2><Descr>105 Route E (EB), 105 Route E (WB)</Descr><Distance>0.19 mi</Distance><Latitude>25.930976</Latitude><Longitude>-80.135947</Longitude></Record><Record><NearbyID>8658</NearbyID><NearbyName>NE 163 ST &amp; # 3067</NearbyName><NearbyType>Bus</NearbyType><Address></Address><Address2></Address2><Descr>105 Route E (EB), 105 Route E (WB), 108 Route H (NB), 108 Route H (SB)</Descr><Distance>0.25 mi</Distance><Latitude>25.926849</Latitude><Longitude>-80.13918</Longitude></Record><Record><NearbyID>8543</NearbyID><NearbyName>NE 35 AV &amp; NE 165 ST</NearbyName><NearbyType>Bus</NearbyType><Address></Address><Address2></Address2><Descr>105 Route E (EB), 105 Route E (WB)</Descr><Distance>0.26 mi</Distance><Latitude>25.931864</Latitude><Longitude>-80.136851</Longitude></Record><Record><NearbyID>8538</NearbyID><NearbyName>NE 35 AV &amp; NE 166 ST</NearbyName><NearbyType>Bus</NearbyType><Address></Address><Address2></Address2><Descr>105 Route E (EB), 105 Route E (WB)</Descr><Distance>0.33 mi</Distance><Latitude>25.932849</Latitude><Longitude>-80.13711</Longitude></Record><Record><NearbyID>8542</NearbyID><NearbyName>NE 35 AV &amp; NE 167 ST</NearbyName><NearbyType>Bus</NearbyType><Address></Address><Address2></Address2><Descr>105 Route E (EB), 105 Route E (WB)</Descr><Distance>0.37 mi</Distance><Latitude>25.933378</Latitude><Longitude>-80.137373</Longitude></Record><Record><NearbyID>8659</NearbyID><NearbyName>NE 163 ST &amp; AT # 2935</NearbyName><NearbyType>Bus</NearbyType><Address></Address><Address2></Address2><Descr>105 Route E (EB), 105 Route E (WB), 108 Route H (NB), 108 Route H (SB)</Descr><Distance>0.4 mi</Distance><Latitude>25.926553</Latitude><Longitude>-80.141476</Longitude></Record><Record><NearbyID>8539</NearbyID><NearbyName>NE 35 AV &amp; NE 168 ST</NearbyName><NearbyType>Bus</NearbyType><Address></Address><Address2></Address2><Descr>105 Route E (EB), 105 Route E (WB)</Descr><Distance>0.47 mi</Distance><Latitude>25.934894</Latitude><Longitude>-80.137242</Longitude></Record><Record><NearbyID>8660</NearbyID><NearbyName>NE 163 ST &amp; NE 28 AV</NearbyName><NearbyType>Bus</NearbyType><Address></Address><Address2></Address2><Descr>105 Route E (EB), 105 Route E (WB), 108 Route H (NB), 108 Route H (SB)</Descr><Distance>0.56 mi</Distance><Latitude>25.926452</Latitude><Longitude>-80.143883</Longitude></Record><Record><NearbyID>8540</NearbyID><NearbyName>NE 35 AV &amp; NE 170 ST</NearbyName><NearbyType>Bus</NearbyType><Address></Address><Address2></Address2><Descr>105 Route E (EB), 105 Route E (WB)</Descr><Distance>0.58 mi</Distance><Latitude>25.936547</Latitude><Longitude>-80.137531</Longitude></Record><Record><NearbyID>9223</NearbyID><NearbyName>NE 163 ST &amp; N BAY RD</NearbyName><NearbyType>Bus</NearbyType><Address></Address><Address2></Address2><Descr>105 Route E (WB), 108 Route H (NB)</Descr><Distance>0.73 mi</Distance><Latitude>25.930655</Latitude><Longitude>-80.12566</Longitude></Record><Record><NearbyID>8661</NearbyID><NearbyName>NE 163 ST &amp; NE 26 AV</NearbyName><NearbyType>Bus</NearbyType><Address></Address><Address2></Address2><Descr>105 Route E (EB), 105 Route E (WB), 108 Route H (NB), 108 Route H (SB)</Descr><Distance>0.74 mi</Distance><Latitude>25.926342</Latitude><Longitude>-80.146526</Longitude></Record><Record><NearbyID>1209</NearbyID><NearbyName>NE 163 ST &amp; # 290 (COLONIAL BNK)</NearbyName><NearbyType>Bus</NearbyType><Address></Address><Address2></Address2><Descr>105 Route E (EB), 108 Route H (SB)</Descr><Distance>0.76 mi</Distance><Latitude>25.92965</Latitude><Longitude>-80.125021</Longitude></Record><Record><NearbyID>639</NearbyID><NearbyName>NE 163 ST &amp; COLLINS AV</NearbyName><NearbyType>Bus</NearbyType><Address></Address><Address2></Address2><Descr>105 Route E (WB), 108 Route H (NB)</Descr><Distance>0.89 mi</Distance><Latitude>25.93074</Latitude><Longitude>-80.123225</Longitude></Record><Record><NearbyID>692</NearbyID><NearbyName>N BAY RD &amp; 174 ST</NearbyName><NearbyType>Bus</NearbyType><Address></Address><Address2></Address2><Descr>105 Route E (WB)</Descr><Distance>0.91 mi</Distance><Latitude>25.937635</Latitude><Longitude>-80.126663</Longitude></Record><Record><NearbyID>673</NearbyID><NearbyName>COLLINS AV &amp; 163 ST</NearbyName><NearbyType>Bus</NearbyType><Address></Address><Address2></Address2><Descr>108 Route H (SB), 119 Route S (SB), 120 Beach MAX (SB)</Descr><Distance>0.93 mi</Distance><Latitude>25.929178</Latitude><Longitude>-80.122427</Longitude></Record><Record><NearbyID>9217</NearbyID><NearbyName>COLLINS AV &amp; ATLANTIC AV</NearbyName><NearbyType>Bus</NearbyType><Address></Address><Address2></Address2><Descr>108 Route H (SB), 119 Route S (SB)</Descr><Distance>0.93 mi</Distance><Latitude>25.926642</Latitude><Longitude>-80.122474</Longitude></Record><Record><NearbyID>9218</NearbyID><NearbyName>COLLINS AV &amp; 159 ST-KINGS PT DR</NearbyName><NearbyType>Bus</NearbyType><Address></Address><Address2></Address2><Descr>108 Route H (SB), 119 Route S (SB)</Descr><Distance>0.97 mi</Distance><Latitude>25.924074</Latitude><Longitude>-80.122535</Longitude></Record><Record><NearbyID>9194</NearbyID><NearbyName>COLLINS AV &amp; 160 ST</NearbyName><NearbyType>Bus</NearbyType><Address></Address><Address2></Address2><Descr>108 Route H (NB), 119 Route S (NB)</Descr><Distance>0.97 mi</Distance><Latitude>25.925404</Latitude><Longitude>-80.122163</Longitude></Record><Record><NearbyID>678</NearbyID><NearbyName>COLLINS AV &amp; SUNNY ISLES BD</NearbyName><NearbyType>Bus</NearbyType><Address></Address><Address2></Address2><Descr>105 Route E (EB), 119 Route S (NB), 120 Beach MAX (NB)</Descr><Distance>0.98 mi</Distance><Latitude>25.930455</Latitude><Longitude>-80.121857</Longitude></Record><Record><NearbyID>9227</NearbyID><NearbyName>174 ST &amp; # 231</NearbyName><NearbyType>Bus</NearbyType><Address></Address><Address2></Address2><Descr>105 Route E (EB)</Descr><Distance>0.99 mi</Distance><Latitude>25.937221</Latitude><Longitude>-80.124725</Longitude></Record><Record><NearbyID>9216</NearbyID><NearbyName>COLLINS AV &amp; # 16830</NearbyName><NearbyType>Bus</NearbyType><Address></Address><Address2></Address2><Descr>105 Route E (WB), 119 Route S (SB), 120 Beach MAX (SB)</Descr><Distance>0.99 mi</Distance><Latitude>25.932029</Latitude><Longitude>-80.122043</Longitude></Record><Record><NearbyID>9224</NearbyID><NearbyName>174 ST &amp; BLK 230</NearbyName><NearbyType>Bus</NearbyType><Address></Address><Address2></Address2><Descr>105 Route E (WB)</Descr><Distance>1.0 mi</Distance><Latitude>25.937057</Latitude><Longitude>-80.124455</Longitude></Record><Record><NearbyID>9219</NearbyID><NearbyName>COLLINS AV &amp; BAYVIEW DR-158 ST</NearbyName><NearbyType>Bus</NearbyType><Address></Address><Address2></Address2><Descr>108 Route H (SB), 119 Route S (SB), 120 Beach MAX (SB)</Descr><Distance>1.0 mi</Distance><Latitude>25.922754</Latitude><Longitude>-80.122557</Longitude></Record><Record><NearbyID>9221</NearbyID><NearbyName>N BAY RD &amp; 178 DR</NearbyName><NearbyType>Bus</NearbyType><Address></Address><Address2></Address2><Descr>105 Route E (WB)</Descr><Distance>1.0 mi</Distance><Latitude>25.938964</Latitude><Longitude>-80.126203</Longitude></Record><Record><NearbyID>9193</NearbyID><NearbyName>COLLINS AV &amp; 159 ST-KINGS PT DR</NearbyName><NearbyType>Bus</NearbyType><Address></Address><Address2></Address2><Descr>108 Route H (NB), 119 Route S (NB)</Descr><Distance>1 mi</Distance><Latitude>25.923465</Latitude><Longitude>-80.122223</Longitude></Record><Record><NearbyID>9195</NearbyID><NearbyName>COLLINS AV &amp; OP # 16830</NearbyName><NearbyType>Bus</NearbyType><Address></Address><Address2></Address2><Descr>105 Route E (EB), 119 Route S (NB), 120 Beach MAX (NB)</Descr><Distance>1 mi</Distance><Latitude>25.932001</Latitude><Longitude>-80.121714</Longitude></Record><Record><NearbyID>9215</NearbyID><NearbyName>COLLINS AV &amp; 170 ST</NearbyName><NearbyType>Bus</NearbyType><Address></Address><Address2></Address2><Descr>105 Route E (WB), 119 Route S (SB)</Descr><Distance>1 mi</Distance><Latitude>25.933377</Latitude><Longitude>-80.121945</Longitude></Record><Record><NearbyID>9192</NearbyID><NearbyName>COLLINS AV &amp; BAYVIEW DR</NearbyName><NearbyType>Bus</NearbyType><Address></Address><Address2></Address2><Descr>108 Route H (NB), 119 Route S (NB), 120 Beach MAX (NB)</Descr><Distance>1 mi</Distance><Latitude>25.922121</Latitude><Longitude>-80.122244</Longitude></Record><Record><NearbyID>9220</NearbyID><NearbyName>COLLINS AV &amp; OP # 15645</NearbyName><NearbyType>Bus</NearbyType><Address></Address><Address2></Address2><Descr>108 Route H (SB), 119 Route S (SB)</Descr><Distance>1 mi</Distance><Latitude>25.921317</Latitude><Longitude>-80.122595</Longitude></Record><Record><NearbyID>9196</NearbyID><NearbyName>COLLINS AV &amp; 170 ST</NearbyName><NearbyType>Bus</NearbyType><Address></Address><Address2></Address2><Descr>105 Route E (EB), 119 Route S (NB)</Descr><Distance>1.1 mi</Distance><Latitude>25.933874</Latitude><Longitude>-80.121606</Longitude></Record><Record><NearbyID>9214</NearbyID><NearbyName>COLLINS AV &amp; 172 ST</NearbyName><NearbyType>Bus</NearbyType><Address></Address><Address2></Address2><Descr>105 Route E (WB), 119 Route S (SB)</Descr><Distance>1.1 mi</Distance><Latitude>25.935862</Latitude><Longitude>-80.121798</Longitude></Record><Record><NearbyID>9231</NearbyID><NearbyName>178 DR &amp; CHURCH ST</NearbyName><NearbyType>Bus</NearbyType><Address></Address><Address2></Address2><Descr>105 Route E (WB)</Descr><Distance>1.1 mi</Distance><Latitude>25.940119</Latitude><Longitude>-80.124968</Longitude></Record><Record><NearbyID>9197</NearbyID><NearbyName>COLLINS AV &amp; 172 ST</NearbyName><NearbyType>Bus</NearbyType><Address></Address><Address2></Address2><Descr>105 Route E (EB), 119 Route S (NB)</Descr><Distance>1.1 mi</Distance><Latitude>25.935863</Latitude><Longitude>-80.121484</Longitude></Record><Record><NearbyID>8553</NearbyID><NearbyName>BISCAYNE BD &amp; NE 172 ST</NearbyName><NearbyType>Bus</NearbyType><Address></Address><Address2></Address2><Descr>3 (NB), 93 Biscayne MAX (NB)</Descr><Distance>1.1 mi</Distance><Latitude>25.935674</Latitude><Longitude>-80.150441</Longitude></Record><Record><NearbyID>9226</NearbyID><NearbyName>174 ST &amp; COLLINS AV</NearbyName><NearbyType>Bus</NearbyType><Address></Address><Address2></Address2><Descr>105 Route E (EB)</Descr><Distance>1.2 mi</Distance><Latitude>25.937726</Latitude><Longitude>-80.122104</Longitude></Record><Record><NearbyID>640</NearbyID><NearbyName>NE 163 ST &amp; BISCAYNE BD</NearbyName><NearbyType>Bus</NearbyType><Address></Address><Address2></Address2><Descr>105 Route E (WB), 108 Route H (NB)</Descr><Distance>1.2 mi</Distance><Latitude>25.926223</Latitude><Longitude>-80.15275</Longitude></Record><Record><NearbyID>10310</NearbyID><NearbyName>BAYVISTA BLVD &amp; OP # 150000</NearbyName><NearbyType>Bus</NearbyType><Address></Address><Address2></Address2><Descr>75 (WB), 135 (WB)</Descr><Distance>1.2 mi</Distance><Latitude>25.913796</Latitude><Longitude>-80.144974</Longitude></Record><Record><NearbyID>9213</NearbyID><NearbyName>COLLINS AV &amp; 174 ST</NearbyName><NearbyType>Bus</NearbyType><Address></Address><Address2></Address2><Descr>119 Route S (SB), 120 Beach MAX (SB)</Descr><Distance>1.2 mi</Distance><Latitude>25.937859</Latitude><Longitude>-80.121684</Longitude></Record><Record><NearbyID>655</NearbyID><NearbyName>NE 163 ST &amp; BISCAYNE BD</NearbyName><NearbyType>Bus</NearbyType><Address></Address><Address2></Address2><Descr>105 Route E (EB), 108 Route H (SB)</Descr><Distance>1.2 mi</Distance><Latitude>25.925856</Latitude><Longitude>-80.152922</Longitude></Record><Record><NearbyID>10309</NearbyID><NearbyName>BAYVISTA BLVD &amp; # 15000</NearbyName><NearbyType>Bus</NearbyType><Address></Address><Address2></Address2><Descr>75 (EB), 135 (EB)</Descr><Distance>1.2 mi</Distance><Latitude>25.913751</Latitude><Longitude>-80.145219</Longitude></Record><Record><NearbyID>8552</NearbyID><NearbyName>BISCAYNE BD &amp; NE 163 ST</NearbyName><NearbyType>Bus</NearbyType><Address></Address><Address2></Address2><Descr>93 Biscayne MAX (NB)</Descr><Distance>1.2 mi</Distance><Latitude>25.927352</Latitude><Longitude>-80.153157</Longitude></Record><Record><NearbyID>1353</NearbyID><NearbyName>BISCAYNE BD &amp; NE 178 ST(POINT EAST</NearbyName><NearbyType>Bus</NearbyType><Address></Address><Address2></Address2><Descr>3 (NB), 93 Biscayne MAX (NB)</Descr><Distance>1.2 mi</Distance><Latitude>25.939637</Latitude><Longitude>-80.149175</Longitude></Record></RecordSet>