<?xml version="1.0" encoding="UTF-8"?><RecordSet><Record><NearbyID>7918</NearbyID><NearbyName>MAC ARTHUR CY &amp; WATSON ISLAND</NearbyName><NearbyType>Bus</NearbyType><Address></Address><Address2></Address2><Descr>103 Route C (NB), 113 Route M (EB), 119 Route S (NB), 120 Beach MAX (NB)</Descr><Distance>0.42 mi</Distance><Latitude>25.78371</Latitude><Longitude>-80.174724</Longitude></Record><Record><NearbyID>7919</NearbyID><NearbyName>MAC ARTHUR CY &amp; JAPANESE GARDENS</NearbyName><NearbyType>Bus</NearbyType><Address></Address><Address2></Address2><Descr>103 Route C (SB), 113 Route M (WB), 119 Route S (SB), 120 Beach MAX (SB)</Descr><Distance>0.47 mi</Distance><Latitude>25.784531</Latitude><Longitude>-80.174776</Longitude></Record><Record><NearbyID>6630</NearbyID><NearbyName>BISCAYNE BD &amp; NE 2 ST</NearbyName><NearbyType>Bus</NearbyType><Address></Address><Address2></Address2><Descr>3 (NB), 93 Biscayne MAX (NB), 95 Golden Glades (SB), 103 Route C (NB), 119 Route S (NB)</Descr><Distance>0.75 mi</Distance><Latitude>25.776525</Latitude><Longitude>-80.187488</Longitude></Record><Record><NearbyID>6631</NearbyID><NearbyName>BISCAYNE BD &amp; NE 4 ST</NearbyName><NearbyType>Bus</NearbyType><Address></Address><Address2></Address2><Descr>3 (NB), 93 Biscayne MAX (NB), 95 Golden Glades (SB), 103 Route C (NB), 119 Route S (NB)</Descr><Distance>0.78 mi</Distance><Latitude>25.778038</Latitude><Longitude>-80.187931</Longitude></Record><Record><NearbyID>832</NearbyID><NearbyName>BISCAYNE BD &amp; E FLAGLER ST</NearbyName><NearbyType>Bus</NearbyType><Address></Address><Address2></Address2><Descr>3 (NB), 93 Biscayne MAX (NB), 119 Route S (NB)</Descr><Distance>0.81 mi</Distance><Latitude>25.773099</Latitude><Longitude>-80.187323</Longitude></Record><Record><NearbyID>BYP</NearbyID><NearbyName>Bayfront Park</NearbyName><NearbyType>Mover</NearbyType><Address>150 Biscayne Boulevard</Address><Address2>Miami, FL 33131</Address2><Descr></Descr><Distance>0.81 mi</Distance><Latitude>25.773091</Latitude><Longitude>-80.187334</Longitude></Record><Record><NearbyID>6627</NearbyID><NearbyName>BISCAYNE BD &amp; NE 3 ST</NearbyName><NearbyType>Bus</NearbyType><Address></Address><Address2></Address2><Descr>95 Golden Glades (NB)</Descr><Distance>0.81 mi</Distance><Latitude>25.777475</Latitude><Longitude>-80.188439</Longitude></Record><Record><NearbyID>7883</NearbyID><NearbyName>VENETIAN WY &amp; OP N VENETIAN DR</NearbyName><NearbyType>Bus</NearbyType><Address></Address><Address2></Address2><Descr>101 Route A (EB)</Descr><Distance>0.84 mi</Distance><Latitude>25.790047</Latitude><Longitude>-80.175694</Longitude></Record><Record><NearbyID>626</NearbyID><NearbyName>BISCAYNE BD &amp; NE 5 ST</NearbyName><NearbyType>Bus</NearbyType><Address></Address><Address2></Address2><Descr>95 Golden Glades (NB)</Descr><Distance>0.84 mi</Distance><Latitude>25.778778</Latitude><Longitude>-80.188817</Longitude></Record><Record><NearbyID>2874</NearbyID><NearbyName>MAC ARTHUR CY &amp; FOUNTAIN ST</NearbyName><NearbyType>Bus</NearbyType><Address></Address><Address2></Address2><Descr>103 Route C (SB), 113 Route M (WB), 119 Route S (SB)</Descr><Distance>0.85 mi</Distance><Latitude>25.777932</Latitude><Longitude>-80.16442</Longitude></Record><Record><NearbyID>2875</NearbyID><NearbyName>MAC ARTHUR CY &amp; OP FOUNTAIN ST</NearbyName><NearbyType>Bus</NearbyType><Address></Address><Address2></Address2><Descr>103 Route C (NB), 113 Route M (EB), 119 Route S (NB)</Descr><Distance>0.85 mi</Distance><Latitude>25.777484</Latitude><Longitude>-80.164429</Longitude></Record><Record><NearbyID>7892</NearbyID><NearbyName>VENETIAN WY &amp; N VENETIAN DR</NearbyName><NearbyType>Bus</NearbyType><Address></Address><Address2></Address2><Descr>101 Route A (WB)</Descr><Distance>0.85 mi</Distance><Latitude>25.790219</Latitude><Longitude>-80.175632</Longitude></Record><Record><NearbyID>103</NearbyID><NearbyName>SE 1 ST &amp; SE 3 AV</NearbyName><NearbyType>Bus</NearbyType><Address></Address><Address2></Address2><Descr>3 (NB), 11 (EB), 77 (SB), 93 Biscayne MAX (NB), 95 Golden Glades (SB), 103 Route C (NB), 119 Route S (NB)</Descr><Distance>0.86 mi</Distance><Latitude>25.773425</Latitude><Longitude>-80.188235</Longitude></Record><Record><NearbyID>7884</NearbyID><NearbyName>VENETIAN WAY &amp; #  1000</NearbyName><NearbyType>Bus</NearbyType><Address></Address><Address2></Address2><Descr>101 Route A (EB)</Descr><Distance>0.87 mi</Distance><Latitude>25.790144</Latitude><Longitude>-80.173677</Longitude></Record><Record><NearbyID>6659</NearbyID><NearbyName>NE 1 ST &amp; NE 3 AV</NearbyName><NearbyType>Bus</NearbyType><Address></Address><Address2></Address2><Descr>11 (EB), 77 (SB)</Descr><Distance>0.87 mi</Distance><Latitude>25.775303</Latitude><Longitude>-80.188968</Longitude></Record><Record><NearbyID>7891</NearbyID><NearbyName>VENETIAN WY &amp; OP # 1000 BLDG</NearbyName><NearbyType>Bus</NearbyType><Address></Address><Address2></Address2><Descr>101 Route A (WB)</Descr><Distance>0.87 mi</Distance><Latitude>25.790303</Latitude><Longitude>-80.173883</Longitude></Record><Record><NearbyID>6716</NearbyID><NearbyName>BISCAYNE BD &amp; NE 6 ST</NearbyName><NearbyType>Bus</NearbyType><Address></Address><Address2></Address2><Descr>95 Golden Glades (NB)</Descr><Distance>0.87 mi</Distance><Latitude>25.779876</Latitude><Longitude>-80.189216</Longitude></Record><Record><NearbyID>7885</NearbyID><NearbyName>VENETIAN WY &amp; VENETIAN CT</NearbyName><NearbyType>Bus</NearbyType><Address></Address><Address2></Address2><Descr>101 Route A (EB)</Descr><Distance>0.89 mi</Distance><Latitude>25.7902</Latitude><Longitude>-80.172508</Longitude></Record><Record><NearbyID>7890</NearbyID><NearbyName>VENETIAN WY &amp; OP VENETIAN CT</NearbyName><NearbyType>Bus</NearbyType><Address></Address><Address2></Address2><Descr>101 Route A (WB)</Descr><Distance>0.9 mi</Distance><Latitude>25.790356</Latitude><Longitude>-80.172494</Longitude></Record><Record><NearbyID>CBY</NearbyID><NearbyName>College/Bayside</NearbyName><NearbyType>Mover</NearbyType><Address>225 NE 3 Street</Address><Address2>Miami, FL 33132</Address2><Descr></Descr><Distance>0.91 mi</Distance><Latitude>25.777581</Latitude><Longitude>-80.189922</Longitude></Record><Record><NearbyID>FSS</NearbyID><NearbyName>First Street</NearbyName><NearbyType>Mover</NearbyType><Address>225 NE First Street</Address><Address2>Miami, FL 33132</Address2><Descr></Descr><Distance>0.92 mi</Distance><Latitude>25.775726</Latitude><Longitude>-80.189858</Longitude></Record><Record><NearbyID>6660</NearbyID><NearbyName>NE 1 ST &amp; NE 2 AV</NearbyName><NearbyType>Bus</NearbyType><Address></Address><Address2></Address2><Descr>11 (EB), 77 (SB)</Descr><Distance>0.94 mi</Distance><Latitude>25.775273</Latitude><Longitude>-80.19005</Longitude></Record><Record><NearbyID>6718</NearbyID><NearbyName>BISCAYNE BD &amp; NE 9 ST</NearbyName><NearbyType>Bus</NearbyType><Address></Address><Address2></Address2><Descr>3 (NB), 93 Biscayne MAX (NB), 95 Golden Glades (SB), 103 Route C (NB), 119 Route S (NB)</Descr><Distance>0.94 mi</Distance><Latitude>25.782798</Latitude><Longitude>-80.189436</Longitude></Record><Record><NearbyID>BCP</NearbyID><NearbyName>Museum Park</NearbyName><NearbyType>Mover</NearbyType><Address>1191 Biscayne Blvd</Address><Address2>Miami, FL 33132</Address2><Descr></Descr><Distance>0.95 mi</Distance><Latitude>25.785916</Latitude><Longitude>-80.187938</Longitude></Record><Record><NearbyID>6715</NearbyID><NearbyName>BISCAYNE BD &amp; NE 9 ST</NearbyName><NearbyType>Bus</NearbyType><Address></Address><Address2></Address2><Descr>3 (SB), 93 Biscayne MAX (SB), 95 Golden Glades (NB)</Descr><Distance>0.96 mi</Distance><Latitude>25.782701</Latitude><Longitude>-80.189706</Longitude></Record><Record><NearbyID>696</NearbyID><NearbyName>NE 2 AV &amp; NE 5 ST</NearbyName><NearbyType>Bus</NearbyType><Address></Address><Address2></Address2><Descr>9 (SB)</Descr><Distance>0.96 mi</Distance><Latitude>25.77918</Latitude><Longitude>-80.190512</Longitude></Record><Record><NearbyID>7886</NearbyID><NearbyName>S VENETIAN WY &amp; NE 12 PL</NearbyName><NearbyType>Bus</NearbyType><Address></Address><Address2></Address2><Descr>101 Route A (EB), 101 Route A (WB)</Descr><Distance>0.97 mi</Distance><Latitude>25.789973</Latitude><Longitude>-80.169249</Longitude></Record><Record><NearbyID>FRT</NearbyID><NearbyName>Freedom Tower</NearbyName><NearbyType>Mover</NearbyType><Address>600 NE Second Avenue</Address><Address2>Miami, FL 33132</Address2><Descr></Descr><Distance>0.98 mi</Distance><Latitude>25.780554</Latitude><Longitude>-80.190601</Longitude></Record><Record><NearbyID>7920</NearbyID><NearbyName>NE 13 ST &amp; N BAYSHORE DR</NearbyName><NearbyType>Bus</NearbyType><Address></Address><Address2></Address2><Descr>103 Route C (SB), 113 Route M (WB), 119 Route S (SB)</Descr><Distance>0.99 mi</Distance><Latitude>25.787137</Latitude><Longitude>-80.187648</Longitude></Record></RecordSet>