<?xml version="1.0" encoding="UTF-8"?><RecordSet><Record><NearbyID>6870</NearbyID><NearbyName>S MIAMI AV &amp; # 3251</NearbyName><NearbyType>Bus</NearbyType><Address></Address><Address2></Address2><Descr>12 (SB), 48 (SB)</Descr><Distance>43 ft</Distance><Latitude>25.747043</Latitude><Longitude>-80.211062</Longitude></Record><Record><NearbyID>6898</NearbyID><NearbyName>S MIAMI AV &amp; #3251 (OP MUSEUM)</NearbyName><NearbyType>Bus</NearbyType><Address></Address><Address2></Address2><Descr>12 (NB), 48 (NB)</Descr><Distance>50 ft</Distance><Latitude>25.746919</Latitude><Longitude>-80.210954</Longitude></Record><Record><NearbyID>6869</NearbyID><NearbyName>S MIAMI AV &amp; SW 32 RD</NearbyName><NearbyType>Bus</NearbyType><Address></Address><Address2></Address2><Descr>12 (SB), 48 (SB)</Descr><Distance>0.11 mi</Distance><Latitude>25.747889</Latitude><Longitude>-80.209814</Longitude></Record><Record><NearbyID>6899</NearbyID><NearbyName>S MIAMI AV &amp; SE 32 RD</NearbyName><NearbyType>Bus</NearbyType><Address></Address><Address2></Address2><Descr>12 (NB), 48 (NB)</Descr><Distance>0.11 mi</Distance><Latitude>25.747775</Latitude><Longitude>-80.209672</Longitude></Record><Record><NearbyID>6897</NearbyID><NearbyName>S MIAMI AV &amp; SAMANA DR</NearbyName><NearbyType>Bus</NearbyType><Address></Address><Address2></Address2><Descr>12 (NB), 48 (NB)</Descr><Distance>0.12 mi</Distance><Latitude>25.745845</Latitude><Longitude>-80.212447</Longitude></Record><Record><NearbyID>182</NearbyID><NearbyName>VIZCAYA METRORAIL STATION   </NearbyName><NearbyType>Bus</NearbyType><Address></Address><Address2></Address2><Descr>24 (EB)</Descr><Distance>0.2 mi</Distance><Latitude>25.749697</Latitude><Longitude>-80.211765</Longitude></Record><Record><NearbyID>187</NearbyID><NearbyName>VIZCAYA METRORAIL STATION</NearbyName><NearbyType>Bus</NearbyType><Address></Address><Address2></Address2><Descr>24 (WB)</Descr><Distance>0.2 mi</Distance><Latitude>25.749697</Latitude><Longitude>-80.211765</Longitude></Record><Record><NearbyID>VIZ</NearbyID><NearbyName>Vizcaya</NearbyName><NearbyType>Rail</NearbyType><Address>3201 SW First Avenue</Address><Address2>Miami, FL 33129</Address2><Descr></Descr><Distance>0.2 mi</Distance><Latitude>25.749705</Latitude><Longitude>-80.211825</Longitude></Record><Record><NearbyID>119</NearbyID><NearbyName>VIZCAYA STA &amp; 3201 SW 1 AV</NearbyName><NearbyType>Bus</NearbyType><Address></Address><Address2></Address2><Descr>12 (NB), 12 (SB), 17 (NB), 17 (SB)</Descr><Distance>0.2 mi</Distance><Latitude>25.749703</Latitude><Longitude>-80.212119</Longitude></Record><Record><NearbyID>8239</NearbyID><NearbyName>SW 22 ST &amp; SW 32 RD</NearbyName><NearbyType>Bus</NearbyType><Address></Address><Address2></Address2><Descr>12 (SB), 17 (SB), 24 (EB)</Descr><Distance>0.31 mi</Distance><Latitude>25.751025</Latitude><Longitude>-80.213084</Longitude></Record><Record><NearbyID>6868</NearbyID><NearbyName>S MIAMI AV &amp; BRICKELL AV</NearbyName><NearbyType>Bus</NearbyType><Address></Address><Address2></Address2><Descr>12 (SB), 48 (SB)</Descr><Distance>0.31 mi</Distance><Latitude>25.749563</Latitude><Longitude>-80.20737</Longitude></Record><Record><NearbyID>6896</NearbyID><NearbyName>S MIAMI AV &amp; S. 3601 BLK</NearbyName><NearbyType>Bus</NearbyType><Address></Address><Address2></Address2><Descr>12 (NB), 48 (NB)</Descr><Distance>0.36 mi</Distance><Latitude>25.743831</Latitude><Longitude>-80.215373</Longitude></Record><Record><NearbyID>6872</NearbyID><NearbyName>S MIAMI AV &amp; OP # 3605</NearbyName><NearbyType>Bus</NearbyType><Address></Address><Address2></Address2><Descr>12 (SB), 48 (SB)</Descr><Distance>0.37 mi</Distance><Latitude>25.743977</Latitude><Longitude>-80.215507</Longitude></Record><Record><NearbyID>6996</NearbyID><NearbyName>SW 3 AV &amp; SW 31 RD</NearbyName><NearbyType>Bus</NearbyType><Address></Address><Address2></Address2><Descr>12 (NB), 17 (NB), 24 (WB)</Descr><Distance>0.39 mi</Distance><Latitude>25.752356</Latitude><Longitude>-80.212832</Longitude></Record><Record><NearbyID>7151</NearbyID><NearbyName>SW 12 AV &amp; SW 21 TE</NearbyName><NearbyType>Bus</NearbyType><Address></Address><Address2></Address2><Descr>12 (NB)</Descr><Distance>0.4 mi</Distance><Latitude>25.751963</Latitude><Longitude>-80.214096</Longitude></Record><Record><NearbyID>6997</NearbyID><NearbyName>SW 3 AV &amp; SW 30 RD</NearbyName><NearbyType>Bus</NearbyType><Address></Address><Address2></Address2><Descr>12 (SB), 24 (EB)</Descr><Distance>0.42 mi</Distance><Latitude>25.753015</Latitude><Longitude>-80.211377</Longitude></Record><Record><NearbyID>7190</NearbyID><NearbyName>SW 13 AV &amp; SW 22 ST</NearbyName><NearbyType>Bus</NearbyType><Address></Address><Address2></Address2><Descr>12 (SB)</Descr><Distance>0.43 mi</Distance><Latitude>25.750719</Latitude><Longitude>-80.216084</Longitude></Record><Record><NearbyID>6901</NearbyID><NearbyName>S MIAMI AV &amp; BRICKELL AV</NearbyName><NearbyType>Bus</NearbyType><Address></Address><Address2></Address2><Descr>12 (NB)</Descr><Distance>0.44 mi</Distance><Latitude>25.750517</Latitude><Longitude>-80.205752</Longitude></Record><Record><NearbyID>7189</NearbyID><NearbyName>MERCY WY &amp; S MIAMI AV</NearbyName><NearbyType>Bus</NearbyType><Address></Address><Address2></Address2><Descr>12 (NB), 48 (NB), 48 (SB)</Descr><Distance>0.45 mi</Distance><Latitude>25.742418</Latitude><Longitude>-80.215831</Longitude></Record><Record><NearbyID>6895</NearbyID><NearbyName>S MIAMI AV &amp; MERCY WY</NearbyName><NearbyType>Bus</NearbyType><Address></Address><Address2></Address2><Descr>12 (NB), 48 (NB)</Descr><Distance>0.46 mi</Distance><Latitude>25.743077</Latitude><Longitude>-80.216463</Longitude></Record><Record><NearbyID>6995</NearbyID><NearbyName>SW 3 AV &amp; SW 29 RD</NearbyName><NearbyType>Bus</NearbyType><Address></Address><Address2></Address2><Descr>12 (NB), 24 (WB), 500 Midnight Owl (SB)</Descr><Distance>0.46 mi</Distance><Latitude>25.753582</Latitude><Longitude>-80.21106</Longitude></Record><Record><NearbyID>8238</NearbyID><NearbyName>SW 22 ST &amp; SW 13 AV</NearbyName><NearbyType>Bus</NearbyType><Address></Address><Address2></Address2><Descr>17 (SB), 24 (EB)</Descr><Distance>0.46 mi</Distance><Latitude>25.750893</Latitude><Longitude>-80.216448</Longitude></Record><Record><NearbyID>120</NearbyID><NearbyName>AT MERCY HOSPITAL &amp; MERCY WY EXIT</NearbyName><NearbyType>Bus</NearbyType><Address></Address><Address2></Address2><Descr>12 (NB), 12 (SB), 48 (NB), 48 (SB)</Descr><Distance>0.5 mi</Distance><Latitude>25.740515</Latitude><Longitude>-80.214417</Longitude></Record><Record><NearbyID>6873</NearbyID><NearbyName>S BAYSHORE DR &amp; ALATKA ST</NearbyName><NearbyType>Bus</NearbyType><Address></Address><Address2></Address2><Descr>48 (SB)</Descr><Distance>0.51 mi</Distance><Latitude>25.742787</Latitude><Longitude>-80.217226</Longitude></Record><Record><NearbyID>7150</NearbyID><NearbyName>SW 12 AV &amp; SW 20  ST</NearbyName><NearbyType>Bus</NearbyType><Address></Address><Address2></Address2><Descr>12 (SB)</Descr><Distance>0.51 mi</Distance><Latitude>25.753598</Latitude><Longitude>-80.214313</Longitude></Record><Record><NearbyID>6998</NearbyID><NearbyName>SW 3 AV &amp; SW 28 RD</NearbyName><NearbyType>Bus</NearbyType><Address></Address><Address2></Address2><Descr>12 (SB), 24 (EB)</Descr><Distance>0.51 mi</Distance><Latitude>25.754234</Latitude><Longitude>-80.209651</Longitude></Record><Record><NearbyID>8220</NearbyID><NearbyName>SW 26 RD &amp; S MIAMI AV</NearbyName><NearbyType>Bus</NearbyType><Address></Address><Address2></Address2><Descr>12 (SB)</Descr><Distance>0.52 mi</Distance><Latitude>25.751619</Latitude><Longitude>-80.205138</Longitude></Record><Record><NearbyID>8219</NearbyID><NearbyName>SW 26 RD &amp; SW 1 AV</NearbyName><NearbyType>Bus</NearbyType><Address></Address><Address2></Address2><Descr>12 (SB)</Descr><Distance>0.53 mi</Distance><Latitude>25.752613</Latitude><Longitude>-80.205952</Longitude></Record><Record><NearbyID>7152</NearbyID><NearbyName>SW 12 AV &amp; SW 31 RD</NearbyName><NearbyType>Bus</NearbyType><Address></Address><Address2></Address2><Descr>12 (NB)</Descr><Distance>0.53 mi</Distance><Latitude>25.754038</Latitude><Longitude>-80.2141</Longitude></Record><Record><NearbyID>6994</NearbyID><NearbyName>SW 3 AV &amp; SW 27 RD</NearbyName><NearbyType>Bus</NearbyType><Address></Address><Address2></Address2><Descr>24 (WB)</Descr><Distance>0.54 mi</Distance><Latitude>25.754624</Latitude><Longitude>-80.209531</Longitude></Record><Record><NearbyID>8291</NearbyID><NearbyName>RICKENBACKER CY &amp; BRICKELL AV</NearbyName><NearbyType>Bus</NearbyType><Address></Address><Address2></Address2><Descr>102 Route B (SB)</Descr><Distance>0.54 mi</Distance><Latitude>25.749604</Latitude><Longitude>-80.203704</Longitude></Record><Record><NearbyID>8221</NearbyID><NearbyName>SW 26 RD &amp; SW 1 AV</NearbyName><NearbyType>Bus</NearbyType><Address></Address><Address2></Address2><Descr>12 (NB)</Descr><Distance>0.55 mi</Distance><Latitude>25.753276</Latitude><Longitude>-80.206298</Longitude></Record><Record><NearbyID>8237</NearbyID><NearbyName>SW 22 ST &amp; SW 14 AV</NearbyName><NearbyType>Bus</NearbyType><Address></Address><Address2></Address2><Descr>17 (SB), 24 (EB)</Descr><Distance>0.56 mi</Distance><Latitude>25.750833</Latitude><Longitude>-80.218177</Longitude></Record><Record><NearbyID>6902</NearbyID><NearbyName>S MIAMI AV &amp; SE 26 RD</NearbyName><NearbyType>Bus</NearbyType><Address></Address><Address2></Address2><Descr>12 (NB)</Descr><Distance>0.57 mi</Distance><Latitude>25.751524</Latitude><Longitude>-80.204281</Longitude></Record><Record><NearbyID>8241</NearbyID><NearbyName>SW 22 ST &amp; SW 14 AV</NearbyName><NearbyType>Bus</NearbyType><Address></Address><Address2></Address2><Descr>17 (NB), 24 (WB)</Descr><Distance>0.59 mi</Distance><Latitude>25.751057</Latitude><Longitude>-80.218628</Longitude></Record><Record><NearbyID>6999</NearbyID><NearbyName>SW 3 AV &amp; SW 26 RD</NearbyName><NearbyType>Bus</NearbyType><Address></Address><Address2></Address2><Descr>12 (SB), 24 (EB)</Descr><Distance>0.6 mi</Distance><Latitude>25.755158</Latitude><Longitude>-80.208298</Longitude></Record><Record><NearbyID>8222</NearbyID><NearbyName>SW 26 RD &amp; SW 3 AV</NearbyName><NearbyType>Bus</NearbyType><Address></Address><Address2></Address2><Descr>12 (NB)</Descr><Distance>0.61 mi</Distance><Latitude>25.755133</Latitude><Longitude>-80.207853</Longitude></Record><Record><NearbyID>6993</NearbyID><NearbyName>SW 3 AV &amp; SW 26 RD</NearbyName><NearbyType>Bus</NearbyType><Address></Address><Address2></Address2><Descr>12 (NB), 24 (WB)</Descr><Distance>0.61 mi</Distance><Latitude>25.755385</Latitude><Longitude>-80.208427</Longitude></Record><Record><NearbyID>7149</NearbyID><NearbyName>SW 12 AV &amp; SW 18 ST</NearbyName><NearbyType>Bus</NearbyType><Address></Address><Address2></Address2><Descr>12 (SB)</Descr><Distance>0.61 mi</Distance><Latitude>25.755188</Latitude><Longitude>-80.214321</Longitude></Record><Record><NearbyID>7187</NearbyID><NearbyName>HALISSE ST &amp; SOUTH BAYSHORE DR</NearbyName><NearbyType>Bus</NearbyType><Address></Address><Address2></Address2><Descr>12 (SB), 48 (NB), 48 (SB)</Descr><Distance>0.61 mi</Distance><Latitude>25.741524</Latitude><Longitude>-80.218164</Longitude></Record><Record><NearbyID>7188</NearbyID><NearbyName>E GLENCOE &amp; SOUTH BAYSHORE DR</NearbyName><NearbyType>Bus</NearbyType><Address></Address><Address2></Address2><Descr>12 (SB), 48 (NB), 48 (SB)</Descr><Distance>0.62 mi</Distance><Latitude>25.740235</Latitude><Longitude>-80.217057</Longitude></Record><Record><NearbyID>6828</NearbyID><NearbyName>BRICKELL AV &amp; SE 25 RD</NearbyName><NearbyType>Bus</NearbyType><Address></Address><Address2></Address2><Descr>48 (NB), 102 Route B (NB)</Descr><Distance>0.64 mi</Distance><Latitude>25.750976</Latitude><Longitude>-80.202709</Longitude></Record><Record><NearbyID>8236</NearbyID><NearbyName>SW 22 ST &amp; SW 16 AV</NearbyName><NearbyType>Bus</NearbyType><Address></Address><Address2></Address2><Descr>17 (SB), 24 (EB)</Descr><Distance>0.66 mi</Distance><Latitude>25.750811</Latitude><Longitude>-80.219758</Longitude></Record><Record><NearbyID>6874</NearbyID><NearbyName>S BAYSHORE DR &amp; HALISSEE ST</NearbyName><NearbyType>Bus</NearbyType><Address></Address><Address2></Address2><Descr>48 (SB)</Descr><Distance>0.67 mi</Distance><Latitude>25.741499</Latitude><Longitude>-80.219091</Longitude></Record><Record><NearbyID>6992</NearbyID><NearbyName>SW 3 AV &amp; SW 25 RD</NearbyName><NearbyType>Bus</NearbyType><Address></Address><Address2></Address2><Descr>24 (WB)</Descr><Distance>0.67 mi</Distance><Latitude>25.75597</Latitude><Longitude>-80.207566</Longitude></Record><Record><NearbyID>8242</NearbyID><NearbyName>SW 22 ST &amp; SW 16 AV</NearbyName><NearbyType>Bus</NearbyType><Address></Address><Address2></Address2><Descr>17 (NB), 24 (WB)</Descr><Distance>0.69 mi</Distance><Latitude>25.751031</Latitude><Longitude>-80.220198</Longitude></Record><Record><NearbyID>7148</NearbyID><NearbyName>SW 12 AV &amp; SW 17 ST</NearbyName><NearbyType>Bus</NearbyType><Address></Address><Address2></Address2><Descr>12 (SB)</Descr><Distance>0.71 mi</Distance><Latitude>25.756658</Latitude><Longitude>-80.214322</Longitude></Record><Record><NearbyID>6829</NearbyID><NearbyName>BRICKELL AV &amp; # 2451</NearbyName><NearbyType>Bus</NearbyType><Address></Address><Address2></Address2><Descr>48 (NB), 102 Route B (NB)</Descr><Distance>0.73 mi</Distance><Latitude>25.751733</Latitude><Longitude>-80.201651</Longitude></Record><Record><NearbyID>6894</NearbyID><NearbyName>S BAYSHORE DR &amp; HIAWATHA AV</NearbyName><NearbyType>Bus</NearbyType><Address></Address><Address2></Address2><Descr>48 (NB)</Descr><Distance>0.74 mi</Distance><Latitude>25.74076</Latitude><Longitude>-80.219906</Longitude></Record></RecordSet>