<?xml version="1.0" encoding="UTF-8"?><RecordSet><Record><NearbyID>5384</NearbyID><NearbyName>COLLINS AV &amp; HAULOVER MARINA</NearbyName><NearbyType>Bus</NearbyType><Address></Address><Address2></Address2><Descr>108 Route H (SB), 119 Route S (SB)</Descr><Distance>95 ft</Distance><Latitude>25.903624</Latitude><Longitude>-80.124437</Longitude></Record><Record><NearbyID>5378</NearbyID><NearbyName>COLLINS AV &amp; HAULOVER PIER</NearbyName><NearbyType>Bus</NearbyType><Address></Address><Address2></Address2><Descr>108 Route H (NB), 119 Route S (NB)</Descr><Distance>253 ft</Distance><Latitude>25.903872</Latitude><Longitude>-80.123934</Longitude></Record><Record><NearbyID>693</NearbyID><NearbyName>COLLINS AV &amp; HAULOVER CLUB PARKIN</NearbyName><NearbyType>Bus</NearbyType><Address></Address><Address2></Address2><Descr>120 Beach MAX (NB), 120 Beach MAX (SB)</Descr><Distance>0.35 mi</Distance><Latitude>25.908457</Latitude><Longitude>-80.12421</Longitude></Record><Record><NearbyID>5379</NearbyID><NearbyName>COLLINS AV--OP &amp; HAULOVER CLUB HOUSE</NearbyName><NearbyType>Bus</NearbyType><Address></Address><Address2></Address2><Descr>108 Route H (NB), 119 Route S (NB)</Descr><Distance>0.39 mi</Distance><Latitude>25.908738</Latitude><Longitude>-80.122561</Longitude></Record><Record><NearbyID>1329</NearbyID><NearbyName>COLLINS AV &amp; HAULOVER CLUB HOUSE</NearbyName><NearbyType>Bus</NearbyType><Address></Address><Address2></Address2><Descr>108 Route H (SB), 119 Route S (SB)</Descr><Distance>0.4 mi</Distance><Latitude>25.908968</Latitude><Longitude>-80.122864</Longitude></Record><Record><NearbyID>1438</NearbyID><NearbyName>COLLINS AV &amp; # 10225</NearbyName><NearbyType>Bus</NearbyType><Address></Address><Address2></Address2><Descr>108 Route H (NB), 119 Route S (NB)</Descr><Distance>0.48 mi</Distance><Latitude>25.896435</Latitude><Longitude>-80.124259</Longitude></Record><Record><NearbyID>1439</NearbyID><NearbyName>COLLINS AV &amp; HARBOUR WY E</NearbyName><NearbyType>Bus</NearbyType><Address></Address><Address2></Address2><Descr>108 Route H (SB), 119 Route S (SB), 120 Beach MAX (SB)</Descr><Distance>0.57 mi</Distance><Latitude>25.895075</Latitude><Longitude>-80.124471</Longitude></Record><Record><NearbyID>1437</NearbyID><NearbyName>COLLINS AV &amp; # 10185</NearbyName><NearbyType>Bus</NearbyType><Address></Address><Address2></Address2><Descr>108 Route H (NB), 119 Route S (NB), 120 Beach MAX (NB)</Descr><Distance>0.62 mi</Distance><Latitude>25.894365</Latitude><Longitude>-80.124126</Longitude></Record><Record><NearbyID>5382</NearbyID><NearbyName>COLLINS AV &amp; HAULOVER LIFEGUARD B</NearbyName><NearbyType>Bus</NearbyType><Address></Address><Address2></Address2><Descr>108 Route H (SB), 119 Route S (SB)</Descr><Distance>0.7 mi</Distance><Latitude>25.913376</Latitude><Longitude>-80.122822</Longitude></Record><Record><NearbyID>699</NearbyID><NearbyName>COLLINS AV &amp; LIFEGUARD BLDG</NearbyName><NearbyType>Bus</NearbyType><Address></Address><Address2></Address2><Descr>108 Route H (NB), 119 Route S (NB)</Descr><Distance>0.72 mi</Distance><Latitude>25.913637</Latitude><Longitude>-80.122498</Longitude></Record><Record><NearbyID>1436</NearbyID><NearbyName>COLLINS AV &amp; # 10101</NearbyName><NearbyType>Bus</NearbyType><Address></Address><Address2></Address2><Descr>108 Route H (NB), 119 Route S (NB)</Descr><Distance>0.76 mi</Distance><Latitude>25.89236</Latitude><Longitude>-80.123995</Longitude></Record><Record><NearbyID>1440</NearbyID><NearbyName>COLLINS AV &amp; # 9930</NearbyName><NearbyType>Bus</NearbyType><Address></Address><Address2></Address2><Descr>108 Route H (SB), 119 Route S (SB)</Descr><Distance>0.78 mi</Distance><Latitude>25.891993</Latitude><Longitude>-80.124282</Longitude></Record><Record><NearbyID>5381</NearbyID><NearbyName>COLLINS AV &amp; # 15000(BOAT RAMP)</NearbyName><NearbyType>Bus</NearbyType><Address></Address><Address2></Address2><Descr>108 Route H (SB), 119 Route S (SB)</Descr><Distance>0.91 mi</Distance><Latitude>25.916451</Latitude><Longitude>-80.122704</Longitude></Record><Record><NearbyID>5380</NearbyID><NearbyName>COLLINS AV &amp; OP # 15000(BOAT RAMP)</NearbyName><NearbyType>Bus</NearbyType><Address></Address><Address2></Address2><Descr>108 Route H (NB), 119 Route S (NB)</Descr><Distance>0.94 mi</Distance><Latitude>25.91678</Latitude><Longitude>-80.12242</Longitude></Record><Record><NearbyID>1435</NearbyID><NearbyName>COLLINS AV &amp; # 9701</NearbyName><NearbyType>Bus</NearbyType><Address></Address><Address2></Address2><Descr>108 Route H (NB), 119 Route S (NB), 120 Beach MAX (NB)</Descr><Distance>0.96 mi</Distance><Latitude>25.889446</Latitude><Longitude>-80.123776</Longitude></Record><Record><NearbyID>662</NearbyID><NearbyName>COLLINS AV &amp; # 9700 (BAL HARBOUR)</NearbyName><NearbyType>Bus</NearbyType><Address></Address><Address2></Address2><Descr>108 Route H (SB), 119 Route S (SB), 120 Beach MAX (SB)</Descr><Distance>1.1 mi</Distance><Latitude>25.888006</Latitude><Longitude>-80.123886</Longitude></Record><Record><NearbyID>1441</NearbyID><NearbyName>96 ST &amp; ABBOTT AV</NearbyName><NearbyType>Bus</NearbyType><Address></Address><Address2></Address2><Descr>107 Route G (WB)</Descr><Distance>1.1 mi</Distance><Latitude>25.887115</Latitude><Longitude>-80.124401</Longitude></Record><Record><NearbyID>1442</NearbyID><NearbyName>96 ST &amp; BAL BAY DR</NearbyName><NearbyType>Bus</NearbyType><Address></Address><Address2></Address2><Descr>107 Route G (WB)</Descr><Distance>1.1 mi</Distance><Latitude>25.887027</Latitude><Longitude>-80.126575</Longitude></Record><Record><NearbyID>677</NearbyID><NearbyName>COLLINS AV &amp; 96 ST</NearbyName><NearbyType>Bus</NearbyType><Address></Address><Address2></Address2><Descr>108 Route H (NB), 119 Route S (NB), 120 Beach MAX (NB)</Descr><Distance>1.1 mi</Distance><Latitude>25.886963</Latitude><Longitude>-80.122624</Longitude></Record><Record><NearbyID>9340</NearbyID><NearbyName>BAY DR &amp; 96 ST</NearbyName><NearbyType>Bus</NearbyType><Address></Address><Address2></Address2><Descr>107 Route G (EB)</Descr><Distance>1.2 mi</Distance><Latitude>25.886639</Latitude><Longitude>-80.126946</Longitude></Record><Record><NearbyID>215</NearbyID><NearbyName>FIU BISC BAY CAMPUS &amp; INSIDE CAMPUS</NearbyName><NearbyType>Bus</NearbyType><Address></Address><Address2></Address2><Descr>75 (EB), 75 (WB), 135 (EB), 135 (WB)</Descr><Distance>1.2 mi</Distance><Latitude>25.9111</Latitude><Longitude>-80.14003</Longitude></Record><Record><NearbyID>1450</NearbyID><NearbyName>96 ST &amp; E BAY HARBOR DR</NearbyName><NearbyType>Bus</NearbyType><Address></Address><Address2></Address2><Descr>107 Route G (EB)</Descr><Distance>1.2 mi</Distance><Latitude>25.886683</Latitude><Longitude>-80.129489</Longitude></Record><Record><NearbyID>1443</NearbyID><NearbyName>96 ST &amp; BAY HARBOR TE</NearbyName><NearbyType>Bus</NearbyType><Address></Address><Address2></Address2><Descr>107 Route G (WB)</Descr><Distance>1.2 mi</Distance><Latitude>25.886856</Latitude><Longitude>-80.131102</Longitude></Record><Record><NearbyID>9220</NearbyID><NearbyName>COLLINS AV &amp; OP # 15645</NearbyName><NearbyType>Bus</NearbyType><Address></Address><Address2></Address2><Descr>108 Route H (SB), 119 Route S (SB)</Descr><Distance>1.2 mi</Distance><Latitude>25.921317</Latitude><Longitude>-80.122595</Longitude></Record><Record><NearbyID>1449</NearbyID><NearbyName>96 ST &amp; BAY HARBOR TE</NearbyName><NearbyType>Bus</NearbyType><Address></Address><Address2></Address2><Descr>107 Route G (EB)</Descr><Distance>1.3 mi</Distance><Latitude>25.886588</Latitude><Longitude>-80.131399</Longitude></Record><Record><NearbyID>9325</NearbyID><NearbyName>COLLINS AV &amp; 95 ST</NearbyName><NearbyType>Bus</NearbyType><Address></Address><Address2></Address2><Descr>107 Route G (WB), 108 Route H (NB), 119 Route S (NB)</Descr><Distance>1.3 mi</Distance><Latitude>25.885148</Latitude><Longitude>-80.122451</Longitude></Record><Record><NearbyID>1444</NearbyID><NearbyName>96 ST &amp; W BAY HARBOR DR</NearbyName><NearbyType>Bus</NearbyType><Address></Address><Address2></Address2><Descr>107 Route G (WB)</Descr><Distance>1.3 mi</Distance><Latitude>25.886765</Latitude><Longitude>-80.13297</Longitude></Record><Record><NearbyID>9192</NearbyID><NearbyName>COLLINS AV &amp; BAYVIEW DR</NearbyName><NearbyType>Bus</NearbyType><Address></Address><Address2></Address2><Descr>108 Route H (NB), 119 Route S (NB), 120 Beach MAX (NB)</Descr><Distance>1.3 mi</Distance><Latitude>25.922121</Latitude><Longitude>-80.122244</Longitude></Record><Record><NearbyID>9219</NearbyID><NearbyName>COLLINS AV &amp; BAYVIEW DR-158 ST</NearbyName><NearbyType>Bus</NearbyType><Address></Address><Address2></Address2><Descr>108 Route H (SB), 119 Route S (SB), 120 Beach MAX (SB)</Descr><Distance>1.3 mi</Distance><Latitude>25.922754</Latitude><Longitude>-80.122557</Longitude></Record><Record><NearbyID>9326</NearbyID><NearbyName>HARDING AV &amp; 94 ST</NearbyName><NearbyType>Bus</NearbyType><Address></Address><Address2></Address2><Descr>107 Route G (EB), 107 Route G (WB), 108 Route H (SB), 119 Route S (SB), 120 Beach MAX (SB)</Descr><Distance>1.4 mi</Distance><Latitude>25.883738</Latitude><Longitude>-80.12347</Longitude></Record><Record><NearbyID>1445</NearbyID><NearbyName>96 ST &amp; E BROADVIEW DR</NearbyName><NearbyType>Bus</NearbyType><Address></Address><Address2></Address2><Descr>107 Route G (WB)</Descr><Distance>1.4 mi</Distance><Latitude>25.886663</Latitude><Longitude>-80.13499</Longitude></Record><Record><NearbyID>9324</NearbyID><NearbyName>COLLINS AV &amp; 94 ST</NearbyName><NearbyType>Bus</NearbyType><Address></Address><Address2></Address2><Descr>108 Route H (NB), 119 Route S (NB), 120 Beach MAX (NB)</Descr><Distance>1.4 mi</Distance><Latitude>25.883307</Latitude><Longitude>-80.122284</Longitude></Record><Record><NearbyID>9193</NearbyID><NearbyName>COLLINS AV &amp; 159 ST-KINGS PT DR</NearbyName><NearbyType>Bus</NearbyType><Address></Address><Address2></Address2><Descr>108 Route H (NB), 119 Route S (NB)</Descr><Distance>1.4 mi</Distance><Latitude>25.923465</Latitude><Longitude>-80.122223</Longitude></Record><Record><NearbyID>1446</NearbyID><NearbyName>96 ST &amp; BROADVIEW TE</NearbyName><NearbyType>Bus</NearbyType><Address></Address><Address2></Address2><Descr>107 Route G (WB)</Descr><Distance>1.5 mi</Distance><Latitude>25.886554</Latitude><Longitude>-80.137509</Longitude></Record><Record><NearbyID>9323</NearbyID><NearbyName>COLLINS AV &amp; 93 ST</NearbyName><NearbyType>Bus</NearbyType><Address></Address><Address2></Address2><Descr>108 Route H (NB), 119 Route S (NB)</Descr><Distance>1.5 mi</Distance><Latitude>25.881703</Latitude><Longitude>-80.12213</Longitude></Record><Record><NearbyID>9327</NearbyID><NearbyName>HARDING AV &amp; 93 ST</NearbyName><NearbyType>Bus</NearbyType><Address></Address><Address2></Address2><Descr>108 Route H (SB), 119 Route S (SB)</Descr><Distance>1.5 mi</Distance><Latitude>25.88142</Latitude><Longitude>-80.123238</Longitude></Record><Record><NearbyID>9194</NearbyID><NearbyName>COLLINS AV &amp; 160 ST</NearbyName><NearbyType>Bus</NearbyType><Address></Address><Address2></Address2><Descr>108 Route H (NB), 119 Route S (NB)</Descr><Distance>1.5 mi</Distance><Latitude>25.925404</Latitude><Longitude>-80.122163</Longitude></Record><Record><NearbyID>10310</NearbyID><NearbyName>BAYVISTA BLVD &amp; OP # 150000</NearbyName><NearbyType>Bus</NearbyType><Address></Address><Address2></Address2><Descr>75 (WB), 135 (WB)</Descr><Distance>1.6 mi</Distance><Latitude>25.913796</Latitude><Longitude>-80.144974</Longitude></Record><Record><NearbyID>10309</NearbyID><NearbyName>BAYVISTA BLVD &amp; # 15000</NearbyName><NearbyType>Bus</NearbyType><Address></Address><Address2></Address2><Descr>75 (EB), 135 (EB)</Descr><Distance>1.6 mi</Distance><Latitude>25.913751</Latitude><Longitude>-80.145219</Longitude></Record><Record><NearbyID>9217</NearbyID><NearbyName>COLLINS AV &amp; ATLANTIC AV</NearbyName><NearbyType>Bus</NearbyType><Address></Address><Address2></Address2><Descr>108 Route H (SB), 119 Route S (SB)</Descr><Distance>1.6 mi</Distance><Latitude>25.926642</Latitude><Longitude>-80.122474</Longitude></Record><Record><NearbyID>9322</NearbyID><NearbyName>COLLINS AV &amp; 92 ST</NearbyName><NearbyType>Bus</NearbyType><Address></Address><Address2></Address2><Descr>108 Route H (NB), 119 Route S (NB)</Descr><Distance>1.6 mi</Distance><Latitude>25.879699</Latitude><Longitude>-80.121948</Longitude></Record><Record><NearbyID>9328</NearbyID><NearbyName>HARDING AV &amp; 92 ST</NearbyName><NearbyType>Bus</NearbyType><Address></Address><Address2></Address2><Descr>108 Route H (SB), 119 Route S (SB)</Descr><Distance>1.6 mi</Distance><Latitude>25.879598</Latitude><Longitude>-80.12306</Longitude></Record><Record><NearbyID>1098</NearbyID><NearbyName>COLLINS AV &amp; ATLANTIC AV</NearbyName><NearbyType>Bus</NearbyType><Address></Address><Address2></Address2><Descr>108 Route H (NB), 119 Route S (NB)</Descr><Distance>1.7 mi</Distance><Latitude>25.927981</Latitude><Longitude>-80.122104</Longitude></Record><Record><NearbyID>9329</NearbyID><NearbyName>HARDING AV &amp; SURFSIDE BD</NearbyName><NearbyType>Bus</NearbyType><Address></Address><Address2></Address2><Descr>108 Route H (SB), 119 Route S (SB)</Descr><Distance>1.8 mi</Distance><Latitude>25.877775</Latitude><Longitude>-80.122852</Longitude></Record><Record><NearbyID>673</NearbyID><NearbyName>COLLINS AV &amp; 163 ST</NearbyName><NearbyType>Bus</NearbyType><Address></Address><Address2></Address2><Descr>108 Route H (SB), 119 Route S (SB), 120 Beach MAX (SB)</Descr><Distance>1.8 mi</Distance><Latitude>25.929178</Latitude><Longitude>-80.122427</Longitude></Record><Record><NearbyID>1209</NearbyID><NearbyName>NE 163 ST &amp; # 290 (COLONIAL BNK)</NearbyName><NearbyType>Bus</NearbyType><Address></Address><Address2></Address2><Descr>105 Route E (EB), 108 Route H (SB)</Descr><Distance>1.8 mi</Distance><Latitude>25.92965</Latitude><Longitude>-80.125021</Longitude></Record><Record><NearbyID>9321</NearbyID><NearbyName>COLLINS AV &amp; # 9011</NearbyName><NearbyType>Bus</NearbyType><Address></Address><Address2></Address2><Descr>108 Route H (NB), 119 Route S (NB)</Descr><Distance>1.8 mi</Distance><Latitude>25.877072</Latitude><Longitude>-80.121659</Longitude></Record><Record><NearbyID>8949</NearbyID><NearbyName>NE 151 ST &amp; OP FIU STADIUM</NearbyName><NearbyType>Bus</NearbyType><Address></Address><Address2></Address2><Descr>75 (EB), 135 (EB)</Descr><Distance>1.8 mi</Distance><Latitude>25.915464</Latitude><Longitude>-80.148337</Longitude></Record><Record><NearbyID>9330</NearbyID><NearbyName>HARDING AV &amp; 90 ST</NearbyName><NearbyType>Bus</NearbyType><Address></Address><Address2></Address2><Descr>108 Route H (SB), 119 Route S (SB), 120 Beach MAX (SB)</Descr><Distance>1.9 mi</Distance><Latitude>25.876352</Latitude><Longitude>-80.122672</Longitude></Record><Record><NearbyID>678</NearbyID><NearbyName>COLLINS AV &amp; SUNNY ISLES BD</NearbyName><NearbyType>Bus</NearbyType><Address></Address><Address2></Address2><Descr>105 Route E (EB), 119 Route S (NB), 120 Beach MAX (NB)</Descr><Distance>1.9 mi</Distance><Latitude>25.930455</Latitude><Longitude>-80.121857</Longitude></Record></RecordSet>