<?xml version="1.0" encoding="UTF-8"?><RecordSet><Record><NearbyID>8276</NearbyID><NearbyName>GRAND AV &amp; VIRGINIA ST</NearbyName><NearbyType>Bus</NearbyType><Address></Address><Address2></Address2><Descr>48 (SB), 249 Coconut Grove Circulator (WB)</Descr><Distance>101 ft</Distance><Latitude>25.728202</Latitude><Longitude>-80.241713</Longitude></Record><Record><NearbyID>204</NearbyID><NearbyName>MCFARLANE RD &amp; GRAND AV</NearbyName><NearbyType>Bus</NearbyType><Address></Address><Address2></Address2><Descr>48 (NB), 249 Coconut Grove Circulator (EB)</Descr><Distance>324 ft</Distance><Latitude>25.727355</Latitude><Longitude>-80.241534</Longitude></Record><Record><NearbyID>8277</NearbyID><NearbyName>GRAND AV &amp; MATILDA ST</NearbyName><NearbyType>Bus</NearbyType><Address></Address><Address2></Address2><Descr>48 (SB), 249 Coconut Grove Circulator (WB)</Descr><Distance>0.12 mi</Distance><Latitude>25.728099</Latitude><Longitude>-80.243665</Longitude></Record><Record><NearbyID>1223</NearbyID><NearbyName>GRAND AV &amp; MARY ST</NearbyName><NearbyType>Bus</NearbyType><Address></Address><Address2></Address2><Descr>249 Coconut Grove Circulator (WB)</Descr><Distance>0.18 mi</Distance><Latitude>25.728245</Latitude><Longitude>-80.239421</Longitude></Record><Record><NearbyID>8290</NearbyID><NearbyName>GRAND AV &amp; COMMODORE PZ</NearbyName><NearbyType>Bus</NearbyType><Address></Address><Address2></Address2><Descr>48 (NB), 249 Coconut Grove Circulator (EB)</Descr><Distance>0.19 mi</Distance><Latitude>25.727911</Latitude><Longitude>-80.244719</Longitude></Record><Record><NearbyID>6884</NearbyID><NearbyName>S BAYSHORE DR &amp; MARY ST</NearbyName><NearbyType>Bus</NearbyType><Address></Address><Address2></Address2><Descr>48 (SB), 249 Coconut Grove Circulator (WB)</Descr><Distance>0.23 mi</Distance><Latitude>25.727819</Latitude><Longitude>-80.238667</Longitude></Record><Record><NearbyID>8278</NearbyID><NearbyName>GRAND AV &amp; MC DONALD ST</NearbyName><NearbyType>Bus</NearbyType><Address></Address><Address2></Address2><Descr>48 (SB), 249 Coconut Grove Circulator (WB)</Descr><Distance>0.26 mi</Distance><Latitude>25.728029</Latitude><Longitude>-80.245748</Longitude></Record><Record><NearbyID>8279</NearbyID><NearbyName>GRAND AV &amp; MARGARET ST</NearbyName><NearbyType>Bus</NearbyType><Address></Address><Address2></Address2><Descr>48 (SB), 249 Coconut Grove Circulator (WB)</Descr><Distance>0.34 mi</Distance><Latitude>25.727979</Latitude><Longitude>-80.246952</Longitude></Record><Record><NearbyID>6883</NearbyID><NearbyName>S BAYSHORE DR &amp; PAN AMERICAN DR</NearbyName><NearbyType>Bus</NearbyType><Address></Address><Address2></Address2><Descr>48 (SB), 249 Coconut Grove Circulator (WB)</Descr><Distance>0.4 mi</Distance><Latitude>25.72994</Latitude><Longitude>-80.2364</Longitude></Record><Record><NearbyID>7403</NearbyID><NearbyName>SW 27 AV &amp; DAY AV</NearbyName><NearbyType>Bus</NearbyType><Address></Address><Address2></Address2><Descr>249 Coconut Grove Circulator (WB)</Descr><Distance>0.41 mi</Distance><Latitude>25.732037</Latitude><Longitude>-80.237569</Longitude></Record><Record><NearbyID>8288</NearbyID><NearbyName>GRAND AV &amp; ELIZABETH ST</NearbyName><NearbyType>Bus</NearbyType><Address></Address><Address2></Address2><Descr>48 (NB), 249 Coconut Grove Circulator (EB)</Descr><Distance>0.42 mi</Distance><Latitude>25.727788</Latitude><Longitude>-80.248102</Longitude></Record><Record><NearbyID>7404</NearbyID><NearbyName>SW 27 AV &amp; DAY AV</NearbyName><NearbyType>Bus</NearbyType><Address></Address><Address2></Address2><Descr>249 Coconut Grove Circulator (EB)</Descr><Distance>0.43 mi</Distance><Latitude>25.732379</Latitude><Longitude>-80.237481</Longitude></Record><Record><NearbyID>8267</NearbyID><NearbyName>TIGERTAIL AV &amp; SW 27 AV</NearbyName><NearbyType>Bus</NearbyType><Address></Address><Address2></Address2><Descr>249 Coconut Grove Circulator (EB)</Descr><Distance>0.44 mi</Distance><Latitude>25.732103</Latitude><Longitude>-80.23707</Longitude></Record><Record><NearbyID>8280</NearbyID><NearbyName>GRAND AV &amp; ELIZABETH ST</NearbyName><NearbyType>Bus</NearbyType><Address></Address><Address2></Address2><Descr>48 (SB), 249 Coconut Grove Circulator (WB)</Descr><Distance>0.44 mi</Distance><Latitude>25.727936</Latitude><Longitude>-80.248395</Longitude></Record><Record><NearbyID>6886</NearbyID><NearbyName>S BAYSHORE DR &amp; PAN AMERICAN DR</NearbyName><NearbyType>Bus</NearbyType><Address></Address><Address2></Address2><Descr>48 (NB), 249 Coconut Grove Circulator (EB)</Descr><Distance>0.45 mi</Distance><Latitude>25.730271</Latitude><Longitude>-80.235832</Longitude></Record><Record><NearbyID>7405</NearbyID><NearbyName>SW 27 AV &amp; TRAPP AV</NearbyName><NearbyType>Bus</NearbyType><Address></Address><Address2></Address2><Descr>249 Coconut Grove Circulator (EB)</Descr><Distance>0.49 mi</Distance><Latitude>25.733743</Latitude><Longitude>-80.23753</Longitude></Record><Record><NearbyID>7402</NearbyID><NearbyName>SW 27 AV &amp; SHIPPING AV</NearbyName><NearbyType>Bus</NearbyType><Address></Address><Address2></Address2><Descr>249 Coconut Grove Circulator (WB)</Descr><Distance>0.5 mi</Distance><Latitude>25.73388</Latitude><Longitude>-80.237637</Longitude></Record><Record><NearbyID>8287</NearbyID><NearbyName>GRAND AV &amp; HIBISCUS ST</NearbyName><NearbyType>Bus</NearbyType><Address></Address><Address2></Address2><Descr>48 (NB), 249 Coconut Grove Circulator (EB)</Descr><Distance>0.51 mi</Distance><Latitude>25.727741</Latitude><Longitude>-80.24943</Longitude></Record><Record><NearbyID>7438</NearbyID><NearbyName>PAN AMERICAN DR &amp; #3500 (CITY HALL)</NearbyName><NearbyType>Bus</NearbyType><Address></Address><Address2></Address2><Descr>249 Coconut Grove Circulator (EB)</Descr><Distance>0.52 mi</Distance><Latitude>25.727845</Latitude><Longitude>-80.234517</Longitude></Record><Record><NearbyID>8271</NearbyID><NearbyName>BIRD AV &amp; MCDONALD ST</NearbyName><NearbyType>Bus</NearbyType><Address></Address><Address2></Address2><Descr>6 (SB)</Descr><Distance>0.52 mi</Distance><Latitude>25.735253</Latitude><Longitude>-80.244491</Longitude></Record><Record><NearbyID>8266</NearbyID><NearbyName>TIGERTAIL AV &amp; BLAINE ST</NearbyName><NearbyType>Bus</NearbyType><Address></Address><Address2></Address2><Descr>249 Coconut Grove Circulator (EB)</Descr><Distance>0.52 mi</Distance><Latitude>25.732881</Latitude><Longitude>-80.236057</Longitude></Record><Record><NearbyID>6882</NearbyID><NearbyName>S BAYSHORE DR &amp; DARWIN ST</NearbyName><NearbyType>Bus</NearbyType><Address></Address><Address2></Address2><Descr>48 (SB), 249 Coconut Grove Circulator (WB)</Descr><Distance>0.55 mi</Distance><Latitude>25.73162</Latitude><Longitude>-80.23477</Longitude></Record><Record><NearbyID>8281</NearbyID><NearbyName>GRAND AV &amp; HIBISCUS ST</NearbyName><NearbyType>Bus</NearbyType><Address></Address><Address2></Address2><Descr>48 (SB), 249 Coconut Grove Circulator (WB)</Descr><Distance>0.56 mi</Distance><Latitude>25.727869</Latitude><Longitude>-80.250093</Longitude></Record><Record><NearbyID>7401</NearbyID><NearbyName>SW 27 AV &amp; BIRD RD</NearbyName><NearbyType>Bus</NearbyType><Address></Address><Address2></Address2><Descr>249 Coconut Grove Circulator (WB)</Descr><Distance>0.57 mi</Distance><Latitude>25.735201</Latitude><Longitude>-80.23772</Longitude></Record><Record><NearbyID>7406</NearbyID><NearbyName>SW 27 AV &amp; BIRD AV</NearbyName><NearbyType>Bus</NearbyType><Address></Address><Address2></Address2><Descr>249 Coconut Grove Circulator (EB)</Descr><Distance>0.59 mi</Distance><Latitude>25.735381</Latitude><Longitude>-80.237582</Longitude></Record><Record><NearbyID>8286</NearbyID><NearbyName>GRAND AV &amp; PLAZA ST</NearbyName><NearbyType>Bus</NearbyType><Address></Address><Address2></Address2><Descr>48 (NB), 249 Coconut Grove Circulator (EB)</Descr><Distance>0.62 mi</Distance><Latitude>25.72768</Latitude><Longitude>-80.250957</Longitude></Record><Record><NearbyID>6887</NearbyID><NearbyName>S BAYSHORE DR &amp; AVIATION AV</NearbyName><NearbyType>Bus</NearbyType><Address></Address><Address2></Address2><Descr>48 (NB), 249 Coconut Grove Circulator (EB)</Descr><Distance>0.62 mi</Distance><Latitude>25.731993</Latitude><Longitude>-80.233847</Longitude></Record><Record><NearbyID>7377</NearbyID><NearbyName>AVIATION AV &amp; S BAYSHORE DR</NearbyName><NearbyType>Bus</NearbyType><Address></Address><Address2></Address2><Descr>249 Coconut Grove Circulator (EB)</Descr><Distance>0.65 mi</Distance><Latitude>25.732786</Latitude><Longitude>-80.233732</Longitude></Record><Record><NearbyID>8259</NearbyID><NearbyName>TIGERTAIL AV &amp; AVIATION AV</NearbyName><NearbyType>Bus</NearbyType><Address></Address><Address2></Address2><Descr>22 (NB)</Descr><Distance>0.68 mi</Distance><Latitude>25.734044</Latitude><Longitude>-80.234101</Longitude></Record><Record><NearbyID>8265</NearbyID><NearbyName>TIGERTAIL AV &amp; WASHINGTON ST</NearbyName><NearbyType>Bus</NearbyType><Address></Address><Address2></Address2><Descr>22 (SB)</Descr><Distance>0.7 mi</Distance><Latitude>25.734317</Latitude><Longitude>-80.23395</Longitude></Record><Record><NearbyID>8282</NearbyID><NearbyName>GRAND AV &amp; PLAZA ST</NearbyName><NearbyType>Bus</NearbyType><Address></Address><Address2></Address2><Descr>48 (SB), 249 Coconut Grove Circulator (WB)</Descr><Distance>0.71 mi</Distance><Latitude>25.7278</Latitude><Longitude>-80.252275</Longitude></Record><Record><NearbyID>7400</NearbyID><NearbyName>SW 27 AV &amp; COCONUT AV</NearbyName><NearbyType>Bus</NearbyType><Address></Address><Address2></Address2><Descr>22 (NB), 249 Coconut Grove Circulator (WB)</Descr><Distance>0.71 mi</Distance><Latitude>25.737589</Latitude><Longitude>-80.237804</Longitude></Record><Record><NearbyID>7407</NearbyID><NearbyName>SW 27 AV &amp; ANDROS AV</NearbyName><NearbyType>Bus</NearbyType><Address></Address><Address2></Address2><Descr>22 (SB), 249 Coconut Grove Circulator (EB)</Descr><Distance>0.72 mi</Distance><Latitude>25.737706</Latitude><Longitude>-80.237703</Longitude></Record><Record><NearbyID>6880</NearbyID><NearbyName>S BAYSHORE DR &amp; # 2539</NearbyName><NearbyType>Bus</NearbyType><Address></Address><Address2></Address2><Descr>48 (SB)</Descr><Distance>0.75 mi</Distance><Latitude>25.733324</Latitude><Longitude>-80.232401</Longitude></Record><Record><NearbyID>8285</NearbyID><NearbyName>GRAND AV &amp; SW 37 AV</NearbyName><NearbyType>Bus</NearbyType><Address></Address><Address2></Address2><Descr>48 (NB), 249 Coconut Grove Circulator (EB)</Descr><Distance>0.78 mi</Distance><Latitude>25.727596</Latitude><Longitude>-80.25332</Longitude></Record><Record><NearbyID>8260</NearbyID><NearbyName>TIGERTAIL AV &amp; JEFFERSON ST</NearbyName><NearbyType>Bus</NearbyType><Address></Address><Address2></Address2><Descr>22 (NB)</Descr><Distance>0.79 mi</Distance><Latitude>25.735044</Latitude><Longitude>-80.232813</Longitude></Record><Record><NearbyID>310</NearbyID><NearbyName>SW 37 AV &amp; GRAND AV</NearbyName><NearbyType>Bus</NearbyType><Address></Address><Address2></Address2><Descr>37 (NB), 48 (SB), 249 Coconut Grove Circulator (WB)</Descr><Distance>0.8 mi</Distance><Latitude>25.728036</Latitude><Longitude>-80.253525</Longitude></Record><Record><NearbyID>7492</NearbyID><NearbyName>SW 37 AV &amp; FLORIDA AV</NearbyName><NearbyType>Bus</NearbyType><Address></Address><Address2></Address2><Descr>37 (SB), 48 (NB), 136 (WB), 249 Coconut Grove Circulator (EB)</Descr><Distance>0.81 mi</Distance><Latitude>25.728439</Latitude><Longitude>-80.253706</Longitude></Record><Record><NearbyID>7513</NearbyID><NearbyName>SW 37 AV &amp; CHARLES AV</NearbyName><NearbyType>Bus</NearbyType><Address></Address><Address2></Address2><Descr>37 (NB)</Descr><Distance>0.81 mi</Distance><Latitude>25.725462</Latitude><Longitude>-80.253429</Longitude></Record><Record><NearbyID>7408</NearbyID><NearbyName>SW 27 AV &amp; SW 28 ST</NearbyName><NearbyType>Bus</NearbyType><Address></Address><Address2></Address2><Descr>22 (SB), 249 Coconut Grove Circulator (EB)</Descr><Distance>0.81 mi</Distance><Latitude>25.739096</Latitude><Longitude>-80.237709</Longitude></Record><Record><NearbyID>7514</NearbyID><NearbyName>SW 37 AV &amp; OAK AV</NearbyName><NearbyType>Bus</NearbyType><Address></Address><Address2></Address2><Descr>37 (NB), 48 (NB), 48 (SB), 136 (EB), 249 Coconut Grove Circulator (WB)</Descr><Distance>0.81 mi</Distance><Latitude>25.729919</Latitude><Longitude>-80.253647</Longitude></Record><Record><NearbyID>7493</NearbyID><NearbyName>SW 37 AV &amp; CHARLES TE</NearbyName><NearbyType>Bus</NearbyType><Address></Address><Address2></Address2><Descr>37 (SB)</Descr><Distance>0.82 mi</Distance><Latitude>25.725499</Latitude><Longitude>-80.253542</Longitude></Record><Record><NearbyID>203</NearbyID><NearbyName>COCONUT GROVE STA &amp; 2780 SW 27 AV</NearbyName><NearbyType>Bus</NearbyType><Address></Address><Address2></Address2><Descr>6 (NB), 6 (SB), 22 (NB), 22 (SB), 27 (NB), 27 (SB), 249 Coconut Grove Circulator (EB), 249 Coconut Grove Circulator (WB)</Descr><Distance>0.82 mi</Distance><Latitude>25.739765</Latitude><Longitude>-80.239329</Longitude></Record><Record><NearbyID>7491</NearbyID><NearbyName>SW 37 AV &amp; PERCIVAL AV</NearbyName><NearbyType>Bus</NearbyType><Address></Address><Address2></Address2><Descr>37 (SB), 48 (NB), 136 (WB), 249 Coconut Grove Circulator (EB)</Descr><Distance>0.83 mi</Distance><Latitude>25.729944</Latitude><Longitude>-80.253832</Longitude></Record><Record><NearbyID>7399</NearbyID><NearbyName>SW 27 AV &amp; US 1</NearbyName><NearbyType>Bus</NearbyType><Address></Address><Address2></Address2><Descr>22 (NB), 249 Coconut Grove Circulator (WB)</Descr><Distance>0.83 mi</Distance><Latitude>25.739411</Latitude><Longitude>-80.237905</Longitude></Record><Record><NearbyID>7512</NearbyID><NearbyName>SW 37 AV &amp; KUMQUAT AV</NearbyName><NearbyType>Bus</NearbyType><Address></Address><Address2></Address2><Descr>37 (NB)</Descr><Distance>0.83 mi</Distance><Latitude>25.724329</Latitude><Longitude>-80.253373</Longitude></Record><Record><NearbyID>1187</NearbyID><NearbyName>GRAND AV &amp; SW 37 AV</NearbyName><NearbyType>Bus</NearbyType><Address></Address><Address2></Address2><Descr>136 (WB)</Descr><Distance>0.83 mi</Distance><Latitude>25.727716</Latitude><Longitude>-80.254056</Longitude></Record><Record><NearbyID>CGV</NearbyID><NearbyName>Coconut Grove</NearbyName><NearbyType>Rail</NearbyType><Address>2780 SW 27 Avenue</Address><Address2>Miami, FL 33133</Address2><Descr></Descr><Distance>0.83 mi</Distance><Latitude>25.739809</Latitude><Longitude>-80.238819</Longitude></Record><Record><NearbyID>7494</NearbyID><NearbyName>SW 37 AV &amp; KUMQUAT AV</NearbyName><NearbyType>Bus</NearbyType><Address></Address><Address2></Address2><Descr>37 (SB)</Descr><Distance>0.84 mi</Distance><Latitude>25.724189</Latitude><Longitude>-80.253463</Longitude></Record></RecordSet>