<?xml version="1.0" encoding="UTF-8"?><RecordSet><Record><NearbyID>4697</NearbyID><NearbyName>SW 88 ST &amp; 7500 BLOCK</NearbyName><NearbyType>Bus</NearbyType><Address></Address><Address2></Address2><Descr>87 (NB), 88 (WB), 104 (WB)</Descr><Distance>105 ft</Distance><Latitude>25.688749</Latitude><Longitude>-80.314644</Longitude></Record><Record><NearbyID>3030</NearbyID><NearbyName>DADELAND BD &amp; SW 88 ST</NearbyName><NearbyType>Bus</NearbyType><Address></Address><Address2></Address2><Descr>73 (SB)</Descr><Distance>367 ft</Distance><Latitude>25.688076</Latitude><Longitude>-80.313544</Longitude></Record><Record><NearbyID>4708</NearbyID><NearbyName>SW 88 ST &amp; DADELAND BD</NearbyName><NearbyType>Bus</NearbyType><Address></Address><Address2></Address2><Descr>87 (SB), 88 (EB), 104 (EB)</Descr><Distance>492 ft</Distance><Latitude>25.688491</Latitude><Longitude>-80.313034</Longitude></Record><Record><NearbyID>DLS</NearbyID><NearbyName>Dadeland South</NearbyName><NearbyType>Rail</NearbyType><Address>9150 Dadeland Boulevard </Address><Address2>Miami, FL 33156</Address2><Descr></Descr><Distance>0.24 mi</Distance><Latitude>25.685244</Latitude><Longitude>-80.313352</Longitude></Record><Record><NearbyID>6</NearbyID><NearbyName>DADELAND SOUTH STA &amp; 9150 DADELAND BD</NearbyName><NearbyType>Bus</NearbyType><Address></Address><Address2></Address2><Descr>31 Busway Local (NB), 31 Busway Local (SB), 34 Busway Flyer (NB), 34 Busway Flyer (SB), 38 Busway MAX (NB), 38 Busway MAX (SB), 52 (NB), 52 (SB), 73 (NB), 73 (SB), 88 (EB), 136 (EB), 136 (WB), 252 Coral Reef MAX (EB), 252 Coral Reef MAX (WB), 287 Saga Bay MAX (NB), 287 Saga Bay MAX (SB), 500 Midnight Owl (NB), 500 Midnight Owl (SB)</Descr><Distance>0.25 mi</Distance><Latitude>25.685035</Latitude><Longitude>-80.313665</Longitude></Record><Record><NearbyID>4695</NearbyID><NearbyName>SW 88 ST &amp; SW 72 CT</NearbyName><NearbyType>Bus</NearbyType><Address></Address><Address2></Address2><Descr>73 (SB), 87 (NB), 88 (WB), 104 (WB)</Descr><Distance>0.26 mi</Distance><Latitude>25.68887</Latitude><Longitude>-80.310651</Longitude></Record><Record><NearbyID>4694</NearbyID><NearbyName>DADELAND CR &amp; SW 72 CT</NearbyName><NearbyType>Bus</NearbyType><Address></Address><Address2></Address2><Descr>87 (SB), 88 (EB), 104 (EB)</Descr><Distance>0.36 mi</Distance><Latitude>25.689297</Latitude><Longitude>-80.309237</Longitude></Record><Record><NearbyID>4698</NearbyID><NearbyName>SW 88 ST &amp; SW 77 AV</NearbyName><NearbyType>Bus</NearbyType><Address></Address><Address2></Address2><Descr>87 (NB), 88 (WB), 104 (WB)</Descr><Distance>0.36 mi</Distance><Latitude>25.68862</Latitude><Longitude>-80.319573</Longitude></Record><Record><NearbyID>9170</NearbyID><NearbyName>SW 88 ST &amp; SW 69 CT</NearbyName><NearbyType>Bus</NearbyType><Address></Address><Address2></Address2><Descr>73 (NB)</Descr><Distance>0.47 mi</Distance><Latitude>25.688758</Latitude><Longitude>-80.307619</Longitude></Record><Record><NearbyID>9169</NearbyID><NearbyName>SW 88 ST &amp; US 1</NearbyName><NearbyType>Bus</NearbyType><Address></Address><Address2></Address2><Descr>73 (SB)</Descr><Distance>0.47 mi</Distance><Latitude>25.68894</Latitude><Longitude>-80.307603</Longitude></Record><Record><NearbyID>4451</NearbyID><NearbyName>SW 79 AV &amp; SW 88 ST</NearbyName><NearbyType>Bus</NearbyType><Address></Address><Address2></Address2><Descr>87 (NB)</Descr><Distance>0.48 mi</Distance><Latitude>25.688756</Latitude><Longitude>-80.321309</Longitude></Record><Record><NearbyID>4699</NearbyID><NearbyName>SW 88 ST &amp; SW 79 AV</NearbyName><NearbyType>Bus</NearbyType><Address></Address><Address2></Address2><Descr>88 (WB), 104 (WB)</Descr><Distance>0.5 mi</Distance><Latitude>25.688538</Latitude><Longitude>-80.321606</Longitude></Record><Record><NearbyID>4452</NearbyID><NearbyName>SW 79 AV &amp; SW 86 ST</NearbyName><NearbyType>Bus</NearbyType><Address></Address><Address2></Address2><Descr>87 (NB)</Descr><Distance>0.5 mi</Distance><Latitude>25.69042</Latitude><Longitude>-80.321404</Longitude></Record><Record><NearbyID>4705</NearbyID><NearbyName>SW 88 ST &amp; SW 79 AV</NearbyName><NearbyType>Bus</NearbyType><Address></Address><Address2></Address2><Descr>88 (EB), 104 (EB)</Descr><Distance>0.61 mi</Distance><Latitude>25.688218</Latitude><Longitude>-80.323173</Longitude></Record><Record><NearbyID>7</NearbyID><NearbyName>DADELAND NORTH STA &amp; BUS STOP AREA</NearbyName><NearbyType>Bus</NearbyType><Address></Address><Address2></Address2><Descr>87 (NB), 87 (SB), 88 (EB), 88 (WB), 104 (EB), 104 (WB), 204 Killian KAT (EB), 204 Killian KAT (WB), 272 Sunset KAT (EB), 272 Sunset KAT (WB), 288 Kendall Cruiser (EB), 288 Kendall Cruiser (WB)</Descr><Distance>0.61 mi</Distance><Latitude>25.691337</Latitude><Longitude>-80.305895</Longitude></Record><Record><NearbyID>9575</NearbyID><NearbyName>S DIXIE HWY &amp; SW 68 CT (N/N)</NearbyName><NearbyType>Bus</NearbyType><Address></Address><Address2></Address2><Descr>500 Midnight Owl (NB)</Descr><Distance>0.62 mi</Distance><Latitude>25.69091</Latitude><Longitude>-80.305674</Longitude></Record><Record><NearbyID>9168</NearbyID><NearbyName>SW 88 ST &amp; SW 68 CT</NearbyName><NearbyType>Bus</NearbyType><Address></Address><Address2></Address2><Descr>73 (SB)</Descr><Distance>0.63 mi</Distance><Latitude>25.689018</Latitude><Longitude>-80.30529</Longitude></Record><Record><NearbyID>4681</NearbyID><NearbyName>KINGS CREEK DR &amp; # 7915</NearbyName><NearbyType>Bus</NearbyType><Address></Address><Address2></Address2><Descr>87 (NB)</Descr><Distance>0.66 mi</Distance><Latitude>25.69355</Latitude><Longitude>-80.322507</Longitude></Record><Record><NearbyID>4692</NearbyID><NearbyName>KINGS CREEK DR &amp; CAMINO CR</NearbyName><NearbyType>Bus</NearbyType><Address></Address><Address2></Address2><Descr>87 (SB)</Descr><Distance>0.66 mi</Distance><Latitude>25.693504</Latitude><Longitude>-80.322633</Longitude></Record><Record><NearbyID>DLN</NearbyID><NearbyName>Dadeland North</NearbyName><NearbyType>Rail</NearbyType><Address>8300 South Dixie Highway</Address><Address2>Miami, FL 33143</Address2><Descr></Descr><Distance>0.68 mi</Distance><Latitude>25.69199</Latitude><Longitude>-80.305102</Longitude></Record><Record><NearbyID>4691</NearbyID><NearbyName>KINGS CREEK DR &amp; # 8002</NearbyName><NearbyType>Bus</NearbyType><Address></Address><Address2></Address2><Descr>87 (SB)</Descr><Distance>0.74 mi</Distance><Latitude>25.694096</Latitude><Longitude>-80.323561</Longitude></Record><Record><NearbyID>4682</NearbyID><NearbyName>KINGS CREEK DR &amp; CAMINO REAL</NearbyName><NearbyType>Bus</NearbyType><Address></Address><Address2></Address2><Descr>87 (NB)</Descr><Distance>0.74 mi</Distance><Latitude>25.694239</Latitude><Longitude>-80.323494</Longitude></Record><Record><NearbyID>4700</NearbyID><NearbyName>SW 88 ST &amp; SW 82 AV</NearbyName><NearbyType>Bus</NearbyType><Address></Address><Address2></Address2><Descr>88 (WB), 104 (WB)</Descr><Distance>0.75 mi</Distance><Latitude>25.688417</Latitude><Longitude>-80.325212</Longitude></Record><Record><NearbyID>9144</NearbyID><NearbyName>SW 67 AV &amp; SW 88 ST</NearbyName><NearbyType>Bus</NearbyType><Address></Address><Address2></Address2><Descr>73 (SB)</Descr><Distance>0.78 mi</Distance><Latitude>25.689296</Latitude><Longitude>-80.303059</Longitude></Record><Record><NearbyID>4701</NearbyID><NearbyName>SW 88 ST &amp; SW 83 AV</NearbyName><NearbyType>Bus</NearbyType><Address></Address><Address2></Address2><Descr>88 (WB), 104 (WB)</Descr><Distance>0.89 mi</Distance><Latitude>25.688342</Latitude><Longitude>-80.327276</Longitude></Record><Record><NearbyID>4683</NearbyID><NearbyName>KINGS CREEK DR &amp; SW 81 PL</NearbyName><NearbyType>Bus</NearbyType><Address></Address><Address2></Address2><Descr>87 (NB)</Descr><Distance>0.9 mi</Distance><Latitude>25.694954</Latitude><Longitude>-80.325745</Longitude></Record><Record><NearbyID>4704</NearbyID><NearbyName>SW 88 ST &amp; SW 82 AV</NearbyName><NearbyType>Bus</NearbyType><Address></Address><Address2></Address2><Descr>88 (EB), 104 (EB)</Descr><Distance>0.93 mi</Distance><Latitude>25.688077</Latitude><Longitude>-80.32778</Longitude></Record><Record><NearbyID>4434</NearbyID><NearbyName>SW 67 AV &amp; US 1</NearbyName><NearbyType>Bus</NearbyType><Address></Address><Address2></Address2><Descr>73 (SB)</Descr><Distance>0.99 mi</Distance><Latitude>25.694196</Latitude><Longitude>-80.301195</Longitude></Record><Record><NearbyID>4666</NearbyID><NearbyName>SW 72 ST &amp; SW 75 AV</NearbyName><NearbyType>Bus</NearbyType><Address></Address><Address2></Address2><Descr>72 (EB)</Descr><Distance>0.99 mi</Distance><Latitude>25.702965</Latitude><Longitude>-80.315585</Longitude></Record><Record><NearbyID>4435</NearbyID><NearbyName>SW 67 AV &amp; US 1</NearbyName><NearbyType>Bus</NearbyType><Address></Address><Address2></Address2><Descr>73 (NB)</Descr><Distance>0.99 mi</Distance><Latitude>25.693686</Latitude><Longitude>-80.300891</Longitude></Record><Record><NearbyID>4667</NearbyID><NearbyName>SW 72 ST &amp; SW 74 AV</NearbyName><NearbyType>Bus</NearbyType><Address></Address><Address2></Address2><Descr>72 (EB)</Descr><Distance>0.99 mi</Distance><Latitude>25.703031</Latitude><Longitude>-80.313631</Longitude></Record><Record><NearbyID>4653</NearbyID><NearbyName>SW 72 ST &amp; SW 75 AV</NearbyName><NearbyType>Bus</NearbyType><Address></Address><Address2></Address2><Descr>72 (WB)</Descr><Distance>1 mi</Distance><Latitude>25.703217</Latitude><Longitude>-80.31589</Longitude></Record><Record><NearbyID>4689</NearbyID><NearbyName>KINGS CREEK DR &amp; SW 82 PL</NearbyName><NearbyType>Bus</NearbyType><Address></Address><Address2></Address2><Descr>87 (SB)</Descr><Distance>1 mi</Distance><Latitude>25.694867</Latitude><Longitude>-80.32767</Longitude></Record><Record><NearbyID>4684</NearbyID><NearbyName>KINGS CREEK DR &amp; APPROX # 8251(82 PL)</NearbyName><NearbyType>Bus</NearbyType><Address></Address><Address2></Address2><Descr>87 (NB)</Descr><Distance>1 mi</Distance><Latitude>25.694999</Latitude><Longitude>-80.327639</Longitude></Record><Record><NearbyID>4652</NearbyID><NearbyName>SW 72 ST &amp; SW 73 CT</NearbyName><NearbyType>Bus</NearbyType><Address></Address><Address2></Address2><Descr>72 (WB)</Descr><Distance>1 mi</Distance><Latitude>25.703337</Latitude><Longitude>-80.312878</Longitude></Record><Record><NearbyID>4665</NearbyID><NearbyName>SW 72 ST &amp; SW 77 CT</NearbyName><NearbyType>Bus</NearbyType><Address></Address><Address2></Address2><Descr>72 (EB)</Descr><Distance>1 mi</Distance><Latitude>25.702812</Latitude><Longitude>-80.318916</Longitude></Record><Record><NearbyID>4654</NearbyID><NearbyName>SW 72 ST &amp; SW 77 PL</NearbyName><NearbyType>Bus</NearbyType><Address></Address><Address2></Address2><Descr>72 (WB)</Descr><Distance>1.1 mi</Distance><Latitude>25.70306</Latitude><Longitude>-80.319376</Longitude></Record><Record><NearbyID>4651</NearbyID><NearbyName>SW 72 ST &amp; SW 72 AV</NearbyName><NearbyType>Bus</NearbyType><Address></Address><Address2></Address2><Descr>72 (WB)</Descr><Distance>1.1 mi</Distance><Latitude>25.703441</Latitude><Longitude>-80.310313</Longitude></Record><Record><NearbyID>9266</NearbyID><NearbyName>SW 67 AV &amp; SW 80 ST</NearbyName><NearbyType>Bus</NearbyType><Address></Address><Address2></Address2><Descr>73 (SB)</Descr><Distance>1.1 mi</Distance><Latitude>25.696593</Latitude><Longitude>-80.301176</Longitude></Record><Record><NearbyID>4668</NearbyID><NearbyName>SW 72 ST &amp; SW 72 AV</NearbyName><NearbyType>Bus</NearbyType><Address></Address><Address2></Address2><Descr>72 (EB)</Descr><Distance>1.1 mi</Distance><Latitude>25.703258</Latitude><Longitude>-80.308998</Longitude></Record><Record><NearbyID>9267</NearbyID><NearbyName>SW 67 AV &amp; SW 80 ST</NearbyName><NearbyType>Bus</NearbyType><Address></Address><Address2></Address2><Descr>73 (NB)</Descr><Distance>1.1 mi</Distance><Latitude>25.696783</Latitude><Longitude>-80.301082</Longitude></Record></RecordSet>